stop_id,stop_code,stop_name,stop_lat,stop_lon,zone_id,location_type,parent_station,wheelchair_boarding
0004,0004,"Meylan, Revirée - Sayettes",45.2122,5.76728,,,REVIREES,0
0006,0006,"La Tronche, Commandant Nal",45.20323,5.74535,,,COMMANAL,1
0007,0007,"La Tronche, Musée Hébert",45.20564,5.74888,,,MUSHEBER,1
0008,0008,"La Tronche, Centre Théologique",45.20617,5.75214,,,CENTHEOL,1
0011,0011,"Meylan, Malacher",45.21128,5.78724,,,MALACHER,1
0012,0012,"La Tronche, La Carronnerie Basse",45.20094,5.75814,,,CARONBAS,1
0015,0015,"Meylan, Granier",45.21024,5.78405,,,GRANIER,1
0016,0016,"Meylan, Meylan Mairie",45.20941,5.77926,,,MEYLMAIR,1
0017,0017,"Meylan, Piscine des Buclos",45.20883,5.77503,,,PISBUCLO,1
0018,0018,"Meylan, Le Brêt",45.20598,5.77184,,,LEBRET,1
0019,0019,"Meylan, Le Brêt",45.2059,5.77174,,,LEBRET,1
0021,0021,"Meylan, La Revirée",45.20731,5.7677,,,REVIREE,1
0024,0024,"Grenoble, Victor Hugo",45.19056,5.72512,,,VICTHUGO,1
0026,0026,"Meylan, Les Léchères",45.20454,5.75928,,,LECHERES,1
0027,0027,"Meylan, Les Léchères",45.20521,5.75858,,,LECHERES,1
0028,0028,"Meylan, Plaine Fleurie",45.20268,5.7609,,,PLAINEFL,1
0029,0029,"Meylan, Les Jaillières",45.22064,5.78917,,,JAILLIER,1
0030,0030,"Meylan, Saint-Mury",45.21947,5.78613,,,STMURY,0
0031,0031,"Meylan, Bérivière",45.21882,5.78312,,,BERIVIER,0
0032,0032,"Meylan, Les Mûriers",45.21605,5.77947,,,MURIERS,1
0033,0033,"Meylan, Chaumetière",45.2124,5.76983,,,CHAUMETI,1
0034,0034,"Meylan, Saint-Jean Bosco",45.21282,5.77305,,,STJBOSCO,1
0035,0035,"Meylan, Lycée du Grésivaudan - Bachais",45.21416,5.7791,,,LYCBACHA,1
0036,0036,"Meylan, Montlivet",45.22996,5.78973,,,MONTLIVE,0
0037,0037,"Domène, Domène Mairie",45.20152,5.83821,,,DOMENEMA,1
0038,0038,"Domène, Les Mortes",45.19636,5.82887,,,MORTES,1
0039,0039,"Murianette, Le Bourg",45.19186,5.81663,,,BOURG,1
0040,0040,"Gières, La Perrière",45.18902,5.81006,,,PERRIERE,1
0041,0041,"Murianette, La Perrière",45.18971,5.81173,,,PERRIERE,1
0042,0042,"Gières, Le Japin",45.18746,5.80706,,,LEJAPIN,1
0043,0043,"Gières, Champrondet",45.18578,5.80285,,,CHAMPRON,1
0044,0044,"Gières, Pied de Gières",45.18388,5.79852,,,PIEDGIER,1
0045,0045,"Gières, Pied de Gières",45.18381,5.79849,,,PIEDGIER,1
0047,0047,"Meylan, Montlivet",45.22998,5.78981,,,MONTLIVE,0
0049,0049,"Grenoble, Place Cymaise",45.195,5.72917,,,PLACECYM,1
0051,0051,"Claix, Les Roses",45.11774,5.66797,,,ROSES,1
0052,0052,"Claix, Les Roses",45.11791,5.66739,,,ROSES,1
0053,0053,"Venon, Le Chapon",45.17101,5.82184,,,LECHAPON,1
0054,0054,"Venon, Le Chapon",45.17096,5.82185,,,LECHAPON,0
0055,0055,"Venon, Le Reynet",45.17007,5.81362,,,LEREYNET,0
0056,0056,"Venon, Le Reynet",45.1699,5.81322,,,LEREYNET,0
0057,0057,"Grenoble, Musée Dauphinois",45.19497,5.72614,,,MUSEEDAU,0
0059,0059,"Échirolles, Danielle Casanova",45.14448,5.70071,,,CASANOVA,1
0060,0060,"Grenoble, Musée Dauphinois",45.19503,5.72611,,,MUSEEDAU,0
0063,0063,"Venon, Le Perroud",45.17265,5.81045,,,LEPERROU,0
0064,0064,"Venon, Le Perroud",45.17245,5.81036,,,LEPERROU,0
0065,0065,"Poisat, Centre Socio-Culturel",45.15827,5.75976,,,CENSOCIO,1
0067,0067,"Venon, Sous-Perroud",45.17034,5.8108,,,SOUSPERO,0
0068,0068,"Venon, Sous-Perroud",45.1703,5.81077,,,SOUSPERO,0
0070,0070,"Saint-Martin-le-Vinoux, L'Hermitage",45.21476,5.70442,,,LHERMITA,0
0071,0071,"Échirolles, Le Château",45.14704,5.72608,,,CHATEAU,0
0072,0072,"Échirolles, Le Château",45.14711,5.72619,,,CHATEAU,0
0073,0073,"Venon, La Chênaie",45.17058,5.80748,,,LACHENAI,0
0074,0074,"Venon, La Chênaie",45.17051,5.80746,,,LACHENAI,0
0075,0075,"Saint-Martin-le-Vinoux, Levetière",45.22609,5.72541,,,LEVETIER,0
0076,0076,"Grenoble, Edmond Esmonin",45.15907,5.72674,,,EDMOESMO,1
0079,0079,"Échirolles, Stade",45.1435,5.72943,,,STADE,0
0080,0080,"Saint-Martin-le-Vinoux, Levetière",45.22614,5.72551,,,LEVETIER,0
0083,0083,"Saint-Martin-le-Vinoux, Lachal",45.22225,5.72467,,,LACHAL,0
0088,0088,"Saint-Martin-le-Vinoux, Lachal",45.22258,5.72475,,,LACHAL,0
0089,0089,"Saint-Martin-le-Vinoux, Mas Caché",45.2177,5.72187,,,LEMASGAC,0
0090,0090,"Veurey-Voroize, La Cuche",45.25604,5.62804,,,LACUCHE,0
0092,0092,"Saint-Martin-le-Vinoux, Mas Caché",45.21735,5.72194,,,LEMASGAC,0
0093,0093,"Venon, Venon Mairie",45.17181,5.80468,,,VENONMAI,0
0094,0094,"Venon, Venon Mairie",45.17165,5.80482,,,VENONMAI,0
0095,0095,"Venon, La Ville",45.17377,5.80279,,,LAVILLE,0
0096,0096,"Venon, La Ville",45.17409,5.80262,,,LAVILLE,0
0097,0097,"Saint-Martin-le-Vinoux, Le Gomma",45.21513,5.71914,,,LAGOMMA,0
0100,0100,"Saint-Martin-le-Vinoux, Le Gomma",45.21528,5.71941,,,LAGOMMA,0
0101,0101,"Eybens, La Châtelière",45.16219,5.74912,,,CHATELIE,1
0102,0102,"Eybens, La Châtelière",45.16217,5.74903,,,CHATELIE,1
0103,0103,"Eybens, Les Javaux",45.15112,5.74959,,,JAVAUX,1
0104,0104,"Eybens, Odyssée",45.15336,5.74848,,,ODYSSEE,1
0105,0105,"Eybens, Val d'Eybens",45.15927,5.74557,,,VALEYBEN,1
0106,0106,"Saint-Martin-le-Vinoux, Hôtel Bellevue",45.21153,5.71775,,,HOTELBEL,0
0107,0107,"Domène, L'Oratoire",45.19819,5.83412,,,ORATOIRE,1
0110,0110,"Poisat, Cimetière Intercommunal",45.15752,5.76412,,,PREMOL,1
0115,0115,"Meylan, Haut-Meylan",45.2183,5.77919,,,HTMEYLAN,0
0116,0116,"Saint-Martin-le-Vinoux, Hôtel Bellevue",45.21178,5.71773,,,HOTELBEL,0
0117,0117,"Venon, La Serralière",45.17305,5.79821,,,LASERRAL,0
0118,0118,"Venon, La Serralière",45.17283,5.79806,,,LASERRAL,0
0119,0119,"Venon, La Faurie",45.17526,5.79498,,,LAFAURIE,0
0120,0120,"Venon, La Faurie",45.17542,5.79467,,,LAFAURIE,0
0125,0125,"Saint-Martin-le-Vinoux, Les Combes",45.20963,5.718,,,LESCOMBE,0
0128,0128,"Saint-Martin-le-Vinoux, Les Combes",45.20972,5.71803,,,LESCOMBE,0
0131,0131,"Gières, Edelweiss",45.18108,5.78844,,,EDELWEIS,1
0132,0132,"Gières, Edelweiss",45.18116,5.78826,,,EDELWEIS,1
0133,0133,"Saint-Martin-le-Vinoux, Les Fauvettes",45.20521,5.71826,,,LESFAUVE,0
0134,0134,"Fontaine, Gérard Philipe",45.19647,5.67717,,,GERARPHI,0
0135,0135,"Saint-Martin-le-Vinoux, Les Fauvettes",45.20658,5.7175,,,LESFAUVE,0
0137,0137,"Fontaine, Jules Guesde",45.1979,5.68869,,,JULESGUE,0
0139,0139,"Fontaine, Rue Pasteur",45.19421,5.69473,,,RUEPASTE,1
0141,0141,"Saint-Martin-le-Vinoux, Place du Village",45.20365,5.71693,,,SMVINOUX,1
0142,0142,"Saint-Martin-le-Vinoux, Place du Village",45.20364,5.7167,,,SMVINOUX,1
0149,0149,"Saint-Martin-le-Vinoux, Ripaillère",45.22685,5.72071,,,RIPAILLE,0
0150,0150,"Fontaine, Charmettes",45.1974,5.69355,,,CHARMETT,1
0151,0151,"Fontaine, Charmettes",45.19786,5.69305,,,CHARMETT,1
0152,0152,"Fontaine, Curie - Vercors",45.19181,5.69499,,,CURIVERC,1
0154,0154,"Fontanil-Cornillon, Rafour",45.24948,5.66712,,,RAFOUR,1
0156,0156,"Saint-Martin-le-Vinoux, Ripaillère",45.22682,5.72078,,,RIPAILLE,0
0157,0157,"Noyarey, Le Ruisset",45.24964,5.63166,,,RUISSET,1
0158,0158,"Saint-Martin-le-Vinoux, Gatinet",45.22494,5.71908,,,LEGATINE,0
0159,0159,"Noyarey, Bascule",45.24291,5.63206,,,NOYARBAS,1
0160,0160,"Noyarey, Chaulnes",45.23642,5.63803,,,CHAULNES,1
0161,0161,"Noyarey, Praparis - Les Roses",45.23201,5.64523,,,PRAPAROS,1
0162,0162,"Saint-Martin-le-Vinoux, Gatinet",45.2249,5.71914,,,LEGATINE,0
0168,0168,"Saint-Martin-le-Vinoux, Conrad Kilian",45.20651,5.70884,,,CONRADKI,1
0169,0169,"Saint-Martin-le-Vinoux, Conrad Kilian",45.20649,5.70878,,,CONRADKI,1
0174,0174,"Saint-Égrève, Eglise",45.23999,5.68407,,,EGLISESE,1
0176,0176,"Saint-Égrève, La Monta",45.23787,5.68891,,,LAMONTA,1
0177,0177,"Saint-Martin-le-Vinoux, La Rivoire",45.22001,5.71508,,,LARIVOIR,0
0180,0180,"Sassenage, Praparis Usine",45.22925,5.6497,,,PRAPARIS,1
0181,0181,"Sassenage, La Rollandière",45.21502,5.66112,,,ROLLANDI,1
0184,0184,"Saint-Martin-le-Vinoux, La Rivoire",45.21994,5.71515,,,LARIVOIR,0
0188,0188,"Seyssinet-Pariset, La Plaine",45.17259,5.69689,,,LAPLAINE,1
0190,0190,"Seyssinet-Pariset, Beau Site",45.17525,5.69689,,,BEAUSITE,1
0191,0191,"Seyssinet-Pariset, L'Arche",45.17816,5.69702,,,CENTRSOC,1
0198,0198,"Saint-Martin-le-Vinoux, Narbonne",45.21401,5.70998,,,NARBONNE,0
0203,0203,"Saint-Martin-le-Vinoux, Narbonne",45.21405,5.70999,,,NARBONNE,0
0206,0206,"Veurey-Voroize, Iles Cordées",45.25955,5.62603,,,ILESCORD,1
0207,0207,"Noyarey, Saint-Jean",45.2383,5.63509,,,NOYARSTJ,1
0209,0209,"Saint-Martin-le-Vinoux, L'Hermitage",45.2148,5.70448,,,LHERMITA,0
0212,0212,"Échirolles, Marie Curie",45.14499,5.71727,,,MARIECUR,0
0215,0215,"Gières, Le Sonnant",45.18161,5.78271,,,SONNANT,1
0216,0216,"Meylan, Revirée - Sayettes",45.21205,5.76638,,,REVIREES,1
0217,0217,"Échirolles, Grugliasco",45.15182,5.71016,,,GRUGLIAS,1
0220,0220,"Veurey-Voroize, Perrières",45.26152,5.62492,,,PERIERES,1
0221,0221,"Veurey-Voroize, Les Echalières",45.26819,5.61932,,,ECHALIER,1
0226,0226,"Échirolles, Colonel Manhès",45.14659,5.70156,,,COLMANHE,1
0227,0227,"Échirolles, Marie Curie",45.14499,5.71729,,,MARIECUR,1
0228,0228,"Échirolles, Grugliasco",45.15157,5.70979,,,GRUGLIAS,1
0229,0229,"Échirolles, Paul Héroult",45.14728,5.71347,,,PHEROULT,1
0230,0230,"Échirolles, Marie Curie",45.1447,5.71643,,,MARIECUR,1
0231,0231,"Échirolles, Auguste Delaune",45.14246,5.71519,,,ADELAUNE,0
0232,0232,"Échirolles, Grugliasco",45.15122,5.70876,,,GRUGLIAS,1
0233,0233,"Échirolles, Ecoles Hospitalières",45.14627,5.72981,,,ECOLHOSP,1
0235,0235,"Échirolles, Le Château",45.14724,5.72672,,,CHATEAU,1
0237,0237,"Échirolles, La Rampe - Centre-Ville",45.14967,5.71884,,,RAMPE,1
0238,0238,"Échirolles, Grugliasco",45.15122,5.70907,,,GRUGLIAS,1
0239,0239,"Échirolles, Le Château",45.14732,5.72671,,,CHATEAU,1
0245,0245,"La Tronche, Grande Tronche",45.20702,5.74536,,,GDTRONCH,0
0246,0246,"Échirolles, Auguste Delaune",45.14219,5.71511,,,ADELAUNE,0
0248,0248,"Échirolles, La Rampe - Centre-Ville",45.14965,5.71924,,,RAMPE,1
0249,0249,"Échirolles, Ecoles Hospitalières",45.14638,5.72973,,,ECOLHOSP,1
0250,0250,"Échirolles, Hôpital Sud",45.1469,5.73274,,,HOPITSUD,1
0251,0251,"Échirolles, Hôpital Sud",45.14691,5.73235,,,HOPITSUD,1
0252,0252,"Échirolles, François Quesnay",45.14793,5.73494,,,FRQUESNA,1
0253,0253,"Échirolles, François Quesnay",45.1479,5.73517,,,FRQUESNA,1
0254,0254,"Échirolles, Bayard",45.14612,5.70442,,,BAYARD,1
0256,0256,"Échirolles, Danielle Casanova",45.14406,5.7005,,,CASANOVA,1
0257,0257,"Échirolles, Vassieux",45.14303,5.70002,,,VASSIEUX,1
0265,0265,"Claix, Carrière",45.1148,5.69029,,,CARRIERE,0
0266,0266,"Claix, Carrière",45.11471,5.69019,,,CARRIERE,1
0267,0267,"Claix, La Ronzy",45.121,5.67609,,,RONZY,1
0268,0268,"Claix, La Chièze",45.12118,5.68251,,,CHIEZE,1
0278,0278,"Meylan, Les Jaillières",45.22152,5.79088,,,JAILLIER,1
0280,0280,"Meylan, Bérivière",45.21871,5.78303,,,BERIVIER,0
0282,0282,"Meylan, Les Mûriers",45.21504,5.77969,,,MURIERS,1
0283,0283,"Meylan, Saint-Jean Bosco",45.2129,5.77365,,,STJBOSCO,1
0284,0284,"Meylan, Chaumetière",45.21249,5.77128,,,CHAUMETI,1
0285,0285,"Sassenage, Les Engenières",45.21987,5.66051,,,ENGENIER,0
0288,0288,"Meylan, Plaine Fleurie",45.20273,5.76086,,,PLAINEFL,1
0289,0289,"Meylan, La Carronnerie Basse",45.20119,5.75875,,,CARONBAS,0
0290,0290,"La Tronche, Pascal",45.1993,5.75549,,,PASCAL,0
0291,0291,"La Tronche, Pascal",45.1995,5.75528,,,PASCAL,1
0292,0292,"La Tronche, Doyen Gosse",45.20135,5.75297,,,DOYENGOS,1
0293,0293,"La Tronche, Vercors",45.20065,5.75111,,,VERCORS,1
0294,0294,"La Tronche, Grand Sablon",45.19902,5.74959,,,GRDSABLO,1
0295,0295,"Meylan, Place de la Louisiane",45.20869,5.76315,,,PLALOUIS,1
0296,0296,"Échirolles, Musée Géo Charles",45.14921,5.70116,,,MUSGEOCH,1
0297,0297,"Gières, Le Chamandier",45.18185,5.78092,,,LECHAMAN,1
0298,0298,"Gières, Le Chamandier",45.18185,5.78096,,,LECHAMAN,1
0299,0299,"Meylan, Place de la Louisiane",45.20876,5.76321,,,PLALOUIS,1
0300,0300,"Échirolles, Le Village",45.14116,5.72025,,,VILLAGE,1
0304,0304,"Saint-Égrève, CAP 38",45.2404,5.66661,,,CAP38,1
0311,0311,"Eybens, Le Crêt",45.14392,5.74859,,,LECRET,0
0312,0312,"Eybens, Le Crêt",45.14377,5.74854,,,LECRET,0
0313,0313,"Bresson,  Bresson Lagay",45.14093,5.74998,,,LAGAY,1
0314,0314,"Bresson, Bresson Lagay",45.1408,5.74997,,,LAGAY,1
0315,0315,"Bresson, Bresson Mairie",45.1377,5.74771,,,BRESSON,1
0316,0316,"Bresson, Les Vignes",45.13809,5.74574,,,VIGNES,1
0317,0317,"Bresson, La Maritelle",45.14162,5.74135,,,MARITELL,1
0318,0318,"Bresson, La Maritelle",45.14108,5.74131,,,MARITELL,1
0323,0323,"Échirolles, Stade",45.14344,5.72946,,,STADE,0
0327,0327,"Grenoble, Les Essarts",45.1593,5.71376,,,LESESSAR,1
0329,0329,"Grenoble, Beauvert",45.16415,5.71776,,,BEAUVERT,1
0330,0330,"Meylan, Aiguinards-Hexagone",45.20608,5.76419,,,AIGUIHEX,1
0331,0331,"Gières, Champrondet",45.18573,5.80291,,,CHAMPRON,1
0333,0333,"Gières, Edelweiss",45.18149,5.78755,,,EDELWEIS,1
0334,0334,"Gières, Edelweiss",45.18142,5.78771,,,EDELWEIS,1
0335,0335,"Gières, Roseraie",45.17897,5.78098,,,ROSERAIE,1
0336,0336,"Saint-Martin-d'Hères, Anguisses",45.17782,5.77786,,,ANGUISSE,1
0337,0337,"Saint-Martin-d'Hères, Anguisses",45.1778,5.77798,,,ANGUISSE,1
0338,0338,"Saint-Martin-d'Hères, Galochère",45.1787,5.77323,,,GALOCHER,1
0339,0339,"Saint-Martin-d'Hères, Elsa Triolet",45.17952,5.77009,,,ELSATRIO,1
0340,0340,"Saint-Martin-d'Hères, Coli",45.18071,5.7657,,,COLI,1
0341,0341,"Saint-Martin-d'Hères, Cité Labeye",45.18253,5.75906,,,CITELABE,1
0342,0342,"Saint-Martin-d'Hères, Gay",45.1848,5.75086,,,GAY,1
0343,0343,"Saint-Martin-d'Hères, Gay",45.18448,5.75186,,,GAY,1
0344,0344,"Saint-Martin-d'Hères, Croix Rouge",45.18555,5.74786,,,CROIXROU,1
0347,0347,"Saint-Martin-d'Hères, Henri Wallon",45.17563,5.76391,,,HENRIWAL,1
0348,0348,"Saint-Martin-d'Hères, Pablo Neruda",45.17395,5.76074,,,PABLONER,1
0349,0349,"Saint-Martin-d'Hères, Pablo Neruda",45.17396,5.76091,,,PABLONER,1
0350,0350,"Saint-Martin-d'Hères, 8 mai 1945",45.17105,5.75682,,,8MAI1945,1
0352,0352,"Saint-Martin-d'Hères, Chopin",45.16605,5.75142,,,CHOPIN,1
0353,0353,"Saint-Martin-d'Hères, Chopin",45.16628,5.75184,,,CHOPIN,1
0354,0354,"Saint-Martin-d'Hères, Le Marais",45.16362,5.75062,,,LEMARAIS,1
0360,0360,"Échirolles, Gay Lussac",45.13565,5.71258,,,GAYLUSSA,1
0361,0361,"Grenoble, Malherbe",45.16897,5.73296,,,MALHERBE,1
0367,0367,"Grenoble, Maison des Anciens",45.15941,5.72348,,,MAISANCI,1
0368,0368,"Meylan, Aiguinards-Hexagone",45.20633,5.76406,,,AIGUIHEX,1
0371,0371,"Seyssinet-Pariset, Les Combes",45.1682,5.67886,,,LECOMB,1
0372,0372,"Grenoble, Louis Jouvet",45.16999,5.73712,,,LOUISJOU,1
0373,0373,"Grenoble, Saint-Augustin",45.17827,5.74591,,,STAUGUST,1
0374,0374,"Saint-Martin-d'Hères, Edouard Vaillant",45.17901,5.75507,,,EDVAILLA,1
0375,0375,"Saint-Martin-d'Hères, Pierre Sémard",45.18132,5.75719,,,PIERSEMA,1
0376,0376,"Saint-Martin-d'Hères, Pierre Sémard",45.18128,5.75712,,,PIERSEMA,1
0385,0385,"Gières, Vignate",45.18928,5.77815,,,VIGNATE,1
0386,0386,"Gières, Vignate",45.18923,5.77806,,,VIGNATE,1
0393,0393,"Meylan, Meylan Mairie",45.20928,5.7785,,,MEYLMAIR,1
0394,0394,"Meylan, Piscine des Buclos",45.20888,5.77538,,,PISBUCLO,1
0396,0396,"Meylan, La Revirée",45.20733,5.76796,,,REVIREE,1
0401,0401,"Meylan, Centre Théologique",45.20628,5.75312,,,CENTHEOL,1
0402,0402,"La Tronche, Musée Hébert",45.20561,5.7489,,,MUSHEBER,1
0403,0403,"La Tronche, Commandant Nal",45.20331,5.74561,,,COMMANAL,1
0405,0405,"Varces-Allières-et-Risset, Collège Jules Verne",45.09546,5.67215,,,CITESCOL,0
0416,0416,"Eybens, Odyssée",45.15357,5.7483,,,ODYSSEE,1
0417,0417,"Eybens, Les Javaux",45.15041,5.74986,,,JAVAUX,1
0418,0418,"Meylan, Haut-Meylan",45.21785,5.77796,,,HTMEYLAN,1
0419,0419,"Meylan, Haut-Meylan",45.21799,5.77829,,,HTMEYLAN,1
0420,0420,"Meylan, La Foy",45.21681,5.77572,,,LAFOY,1
0421,0421,"Meylan, La Foy",45.2171,5.77634,,,LAFOY,1
0422,0422,"Corenc, Buclos",45.21581,5.77226,,,BUCLOS,1
0423,0423,"Corenc, Buclos",45.2157,5.77164,,,BUCLOS,1
0424,0424,"Corenc, Les Oiseaux",45.21506,5.76867,,,OISEAUX,1
0425,0425,"Corenc, Les Oiseaux",45.21505,5.76853,,,OISEAUX,1
0426,0426,"Corenc, Eygala",45.21385,5.7646,,,EYGALA,1
0427,0427,"Corenc, Eygala",45.21377,5.76431,,,EYGALA,1
0429,0429,"Corenc, Corenc Mairie",45.21019,5.75279,,,CORENCMA,1
0430,0430,"Corenc, Montfleury",45.21219,5.75757,,,MONTFLEU,1
0432,0432,"Corenc, Corenc Mairie",45.21013,5.75255,,,CORENCMA,1
0435,0435,"La Tronche, Grande Tronche",45.20704,5.74578,,,GDTRONCH,0
0437,0437,"La Tronche, Jules Rey",45.20658,5.74278,,,JULESREY,1
0438,0438,"La Tronche, Jules Rey",45.20649,5.74237,,,JULESREY,1
0441,0441,"La Tronche, Bastille",45.20461,5.73787,,,BASTILLE,1
0443,0443,"La Tronche, Petite Tronche",45.20212,5.73442,,,PTTRONCH,1
0444,0444,"La Tronche, Petite Tronche",45.20195,5.73416,,,PTTRONCH,1
0447,0447,"Grenoble, Saint-Laurent",45.19798,5.73263,,,STLAUREN,0
0448,0448,"Grenoble, Saint-Laurent",45.19802,5.73257,,,STLAUREN,1
0451,0451,"Grenoble, Condorcet",45.18576,5.71934,,,CONDORCE,1
0452,0452,"Grenoble, Condorcet",45.18577,5.71892,,,CONDORCE,1
0454,0454,"Grenoble, D'Alembert",45.18422,5.71064,,,ALEMBERT,1
0455,0455,"Grenoble, Vallier - Docteur Calmette",45.1805,5.71127,,,DRCALME,1
0463,0463,"Fontanil-Cornillon, Rafour",45.24899,5.66692,,,RAFOUR,1
0471,0471,"Meylan, Haut-Meylan",45.21845,5.77908,,,HTMEYLAN,0
0472,0472,"Saint-Égrève, Karben",45.24238,5.67118,,,KARBEN,1
0473,0473,"Saint-Égrève, Karben",45.24228,5.67102,,,KARBEN,1
0474,0474,"Saint-Égrève, La Monta",45.238,5.68861,,,LAMONTA,1
0475,0475,"Saint-Égrève, Les Bonnais",45.23988,5.67302,,,BONNAIS,0
0476,0476,"Saint-Égrève, Cuvilleux",45.2349,5.68768,,,CUVILLEU,1
0478,0478,"Saint-Égrève, Visancourt",45.23317,5.68606,,,VISANCOU,1
0480,0480,"Saint-Égrève, Moutonnées",45.22838,5.68422,,,MOUTONNE,1
0481,0481,"Saint-Égrève, Muret",45.22618,5.68616,,,MURET,1
0487,0487,"Meylan, Champ Rochas",45.20711,5.75833,,,CHAMROC,0
0489,0489,"Grenoble, Madeleine",45.18491,5.74324,,,MADELEIN,1
0490,0490,"Grenoble, Jeanne d'Arc",45.18191,5.74579,,,JEANNARC,1
0491,0491,"Grenoble, Grand Châtelet",45.18183,5.74852,,,GDCHATEL,1
0492,0492,"Meylan, Champ Rochas",45.20744,5.75903,,,CHAMROC,0
0493,0493,"Saint-Martin-d'Hères, Edmond Rostand",45.17446,5.75432,,,EDROSTAN,1
0494,0494,"Saint-Martin-d'Hères, Etienne Grappe",45.17206,5.75713,,,ETIEGRAP,1
0495,0495,"Saint-Martin-d'Hères, Potié",45.17088,5.75859,,,POTIE,1
0496,0496,"Saint-Martin-d'Hères, Croix du Pâtre",45.16828,5.7627,,,CXPATRE,1
0500,0500,"Saint-Martin-d'Hères, Glaïeuls",45.16964,5.76358,,,GLAIEULS,1
0501,0501,"Saint-Martin-d'Hères, Saint-Martin-d'Hères Village",45.16512,5.76552,,,SMHVILLA,1
0502,0502,"Saint-Martin-d'Hères, Saint-Martin-d'Hères Village",45.16492,5.76527,,,SMHVILLA,1
0503,0503,"Saint-Martin-d'Hères, Les Alloves",45.1719,5.76493,,,ALLOVES,1
0511,0511,"Grenoble, Clos d'Or",45.16955,5.72322,,,CLOSDOR,1
0512,0512,"Grenoble, Arago",45.1963,5.71241,,,ARAGO,1
0513,0513,"Grenoble, Emile Gueymard",45.19484,5.71365,,,EMILGUEY,1
0514,0514,"Grenoble, Edison",45.18183,5.74091,,,EDISON,1
0515,0515,"Grenoble, Suzanne Noël - Les Bains",45.17821,5.74263,,,LESBAINS,1
0516,0516,"Saint-Martin-d'Hères, Pierre Loti",45.16664,5.74646,,,PIERRELO,1
0517,0517,"Saint-Martin-d'Hères, Paul Eluard",45.16512,5.74887,,,PAULELUA,1
0518,0518,"Eybens, Bel Air",45.16106,5.75525,,,BELAIR,1
0519,0519,"Poisat, Robespierre",45.15985,5.75718,,,ROBESPIE,1
0520,0520,"Poisat, Centre Socio-Culturel",45.15821,5.75974,,,CENSOCIO,1
0521,0521,"Domène, Chenevières",45.20673,5.82734,,,CHENEVIE,1
0522,0522,"Domène, Le Prieuré",45.20489,5.83576,,,PRIEURE,1
0523,0523,"Domène, Le Prieuré",45.20457,5.8361,,,PRIEURE,1
0525,0525,"Domène, Les Arnauds",45.20683,5.84788,,,ARNAUDS,1
0526,0526,"Domène, L'Oratoire",45.19802,5.83362,,,ORATOIRE,1
0527,0527,"Domène, Les Mortes",45.19638,5.82911,,,MORTES,1
0528,0528,"Murianette, Les Rivets",45.19483,5.82455,,,RIVETS,1
0529,0529,"Murianette, Les Rivets",45.19488,5.82488,,,RIVETS,1
0530,0530,"Murianette, Le Bourg",45.19187,5.81646,,,BOURG,1
0531,0531,"Seyssins, Garlettes",45.14524,5.67678,,,GARLETTE,0
0533,0533,"Gières, Le Sonnant",45.18142,5.78156,,,SONNANT,1
0534,0534,"Seyssins, Garlettes",45.14531,5.67687,,,CIMETIGA,0
0535,0535,"Saint-Martin-d'Hères, Champ Roman",45.18473,5.76846,,,CHAMPROM,1
0536,0536,"Saint-Martin-d'Hères, Neyrpic - Belledonne",45.18685,5.75628,,,NEYRBELL,1
0537,0537,"Saint-Martin-d'Hères, Péri - Brossolette",45.18757,5.75258,,,PERIBROS,1
0544,0544,"Seyssins, L'Argoud",45.15386,5.67997,,,ARGOUD,1
0545,0545,"Seyssins, L'Argoud",45.15433,5.6803,,,ARGOUD,1
0553,0553,"Noyarey, Rue du Maupas",45.2459,5.62949,,,CHEMAUPA,0
0559,0559,"Noyarey, Rue du Maupas",45.24586,5.62947,,,CHEMAUPA,0
0560,0560,"Corenc, Batonnière",45.22728,5.75888,,,CHEMBATO,0
0563,0563,"Corenc, Batonnière",45.22733,5.75876,,,CHEMBATO,0
0575,0575,"Fontaine, Curie - Vercors",45.19188,5.69505,,,CURIVERC,1
0586,0586,"Veurey-Voroize, Chemin du Parc",45.27467,5.60645,,,CHATEAUX,1
0587,0587,"Veurey-Voroize, Chemin du Parc",45.27449,5.60613,,,CHATEAUX,1
0588,0588,"Veurey-Voroize, Petit Châtelard",45.27657,5.61239,,,PTCHATEL,0
0589,0589,"Veurey-Voroize, Petit Châtelard",45.27608,5.61213,,,PTCHATEL,0
0590,0590,"Veurey-Voroize, Le Béryl",45.27487,5.61264,,,BERYL,0
0591,0591,"Veurey-Voroize, Le Béryl",45.2748,5.61283,,,BERYL,0
0593,0593,"Veurey-Voroize, Mairie",45.27305,5.61273,,,VEUREYMA,0
0594,0594,"Veurey-Voroize, Eglise",45.27225,5.61564,,,VEUREYEG,1
0595,0595,"Veurey-Voroize, Eglise",45.27242,5.61525,,,VEUREYEG,1
0596,0596,"Veurey-Voroize, Perrières",45.26209,5.6247,,,PERIERES,1
0598,0598,"Veurey-Voroize, Iles Cordées",45.25971,5.62608,,,ILESCORD,1
0599,0599,"Veurey-Voroize, La Cuche",45.25606,5.62814,,,LACUCHE,0
0601,0601,"Noyarey, Le Ruisset",45.24971,5.63181,,,RUISSET,1
0602,0602,"Noyarey, Bascule",45.24292,5.63217,,,NOYARBAS,1
0603,0603,"Noyarey, Saint-Jean",45.23891,5.63425,,,NOYARSTJ,1
0604,0604,"Noyarey, Chaulnes",45.23654,5.63811,,,CHAULNES,1
0605,0605,"Noyarey, Praparis - Les Roses",45.23226,5.64503,,,PRAPAROS,1
0606,0606,"Sassenage, Praparis Usine",45.22961,5.64924,,,PRAPARIS,1
0607,0607,"Sassenage, Les Engenières",45.21962,5.66033,,,ENGENIER,1
0608,0608,"Sassenage, Les Engenières",45.2196,5.66022,,,ENGENIER,1
0610,0610,"Sassenage, La Rollandière",45.21485,5.66123,,,ROLLANDI,1
0612,0612,"Sassenage, Place de la Libération",45.20671,5.66274,,,PLIBERAT,1
0613,0613,"Sassenage, Trefforine",45.20446,5.66499,,,TREFFORI,1
0614,0614,"Fontaine, Gérard Philipe",45.19647,5.67704,,,GERARPHI,1
0615,0615,"Fontaine, Rue des Alpes",45.19778,5.68027,,,RUEALPES,1
0616,0616,"Fontaine, Marat",45.19915,5.68284,,,MARAT,1
0617,0617,"Fontaine, Marat",45.19909,5.68281,,,MARAT,0
0627,0627,"La Tronche, Le Gorget",45.21532,5.74846,,,LEGORGET,0
0628,0628,"La Tronche, Le Gorget",45.21528,5.74852,,,LEGORGET,0
0634,0634,"Fontaine, Jules Guesde",45.19791,5.68878,,,JULESGUE,1
0637,0637,"Fontaine, Rue Pasteur",45.19465,5.69451,,,RUEPASTE,1
0641,0641,"Seyssins, Le Bournet",45.15765,5.68975,,,BOURNET,1
0642,0642,"Seyssins, Le Bournet",45.15744,5.68999,,,BOURNET,1
0643,0643,"Seyssins, La Baume",45.1595,5.68969,,,LABAUME,1
0644,0644,"Seyssins, Marc Sangnier",45.16486,5.68915,,,MARCSANG,1
0645,0645,"Seyssins, Marc Sangnier",45.16493,5.68918,,,MARCSANG,1
0646,0646,"Seyssinet-Pariset, La Plaine",45.1724,5.69682,,,LAPLAINE,1
0647,0647,"Seyssinet-Pariset, L'Arche",45.17828,5.69699,,,CENTRSOC,1
0649,0649,"Saint-Martin-d'Hères, Les Alpilles",45.18714,5.76958,,,PROMOSOC,1
0650,0650,"Saint-Martin-d'Hères, Les Alpilles",45.18743,5.76963,,,PROMOSOC,1
0653,0653,"La Tronche, Le Rozan",45.20926,5.74226,,,LERONZA,0
0654,0654,"Saint-Martin-d'Hères, Bibliothèques Universitaires",45.19166,5.77038,,,BIBLIUNI,1
0655,0655,"La Tronche, Le Rozan",45.20925,5.74235,,,LERONZA,0
0656,0656,"Meylan, Saint-Mury",45.21937,5.78601,,,STMURY,0
0658,0658,"Meylan, Lycée du Grésivaudan - Bachais",45.21403,5.77904,,,LYCBACHA,1
0662,0662,"Saint-Martin-d'Hères, Bel Air",45.1611,5.75531,,,BELAIR,1
0674,0674,"Eybens, Général de Gaulle",45.16187,5.74501,,,DEGAULLE,1
0675,0675,"Eybens, Général de Gaulle",45.16148,5.74385,,,DEGAULLE,1
0676,0676,"Meylan, Maupertuis",45.21285,5.79719,,,MAUPERTU,1
0677,0677,"Meylan, Les Béalières",45.21153,5.7907,,,BEALIERE,1
0691,0691,"Le Gua, La Pierre",44.98902,5.62164,,,LAPIERRE,0
0692,0692,"Miribel-Lanchâtre, Le Vernay",44.97015,5.60874,,,LEVERNAY,0
0693,0693,"Le Gua, Saint-Barthélémy",44.99995,5.62934,,,STBARTHE,0
0694,0694,"Le Gua, Saint-Barthélémy",44.99986,5.62946,,,STBARTHE,0
0697,0697,"Seyssins, Le Priou",45.15696,5.67871,,,LEPRIOU,0
0715,0715,"Grenoble, Louise Michel",45.16919,5.71262,,,LMICHEL,1
0716,0716,"Grenoble, Louise Michel",45.16955,5.71292,,,LMICHEL,1
0722,0722,"Grenoble, Marielle Franco - Rondeau",45.16024,5.7096,,,RONDEAU,1
0723,0723,"Grenoble, Marielle Franco - Rondeau",45.1612,5.71009,,,RONDEAU,1
0726,0726,"Grenoble, Docteur Mazet",45.19128,5.72153,,,DRMAZET,1
0727,0727,"Grenoble, Docteur Mazet",45.19139,5.72258,,,DRMAZET,1
0730,0730,"La Tronche, Doyen Gosse",45.20138,5.75303,,,DOYENGOS,1
0731,0731,"Grenoble, Edmond Esmonin",45.15937,5.72662,,,EDMOESMO,1
0732,0732,"Grenoble, Christophe Turc",45.16137,5.72414,,,CHRISTUR,1
0733,0733,"Grenoble, Christophe Turc",45.16073,5.72403,,,CHRISTUR,1
0734,0734,"Grenoble, Village Olympique",45.16411,5.72404,,,VILLOLYM,1
0735,0735,"Grenoble, Village Olympique",45.16355,5.72393,,,VILLOLYM,1
0736,0736,"Grenoble, Vigny",45.16744,5.72338,,,VIGNY,1
0737,0737,"Grenoble, Vigny",45.16734,5.72335,,,VIGNY,1
0738,0738,"Grenoble, Clos d'Or",45.16949,5.72271,,,CLOSDOR,1
0739,0739,"Grenoble, Clos d'Or",45.16934,5.72311,,,CLOSDOR,1
0740,0740,"Grenoble, Eugène Sue",45.17304,5.7246,,,EUGENESU,1
0741,0741,"Grenoble, Eugène Sue",45.17284,5.72476,,,EUGENESU,1
0742,0742,"Grenoble, Capuche",45.17659,5.72454,,,CAPUCHE,1
0743,0743,"Grenoble, Capuche",45.17607,5.7248,,,CAPUCHE,1
0744,0744,"Grenoble, Foch - Ferrié",45.18016,5.72339,,,FOCHFERI,1
0745,0745,"Grenoble, Foch - Ferrié",45.18044,5.72346,,,FOCHFERI,1
0749,0749,"Grenoble, Championnet",45.18539,5.7225,,,CHAMPION,1
0750,0750,"Grenoble, Championnet",45.18554,5.72318,,,CHAMPION,1
0753,0753,"Grenoble, Docteur Martin",45.18787,5.72682,,,DRMARTIN,1
0754,0754,"Grenoble, Docteur Martin",45.18766,5.72684,,,DRMARTIN,1
0758,0758,"Grenoble, Les Essarts",45.15919,5.71352,,,LESESSAR,1
0760,0760,"Grenoble, Beauvert",45.16417,5.71792,,,BEAUVERT,1
0763,0763,"Grenoble, Massenet",45.16771,5.72108,,,MASSENET,1
0764,0764,"Grenoble, Capuche",45.17582,5.72588,,,CAPUCHE,1
0765,0765,"Grenoble, Capuche",45.17615,5.72615,,,CAPUCHE,1
0766,0766,"Grenoble, Rue des Déportés",45.17791,5.72737,,,DEPORTES,1
0768,0768,"Grenoble, Rue des Déportés",45.17829,5.72771,,,DEPORTES,1
0769,0769,"Grenoble, Gustave Rivet",45.1817,5.72783,,,GUSTRIVE,1
0774,0774,"Saint-Martin-d'Hères, Galochère",45.17878,5.77315,,,GALOCHER,1
0775,0775,"Saint-Martin-d'Hères, Elsa Triolet",45.17958,5.77015,,,ELSATRIO,1
0776,0776,"Saint-Martin-d'Hères, Coli",45.18073,5.76596,,,COLI,1
0777,0777,"Saint-Martin-d'Hères, Portail Rouge",45.18136,5.76334,,,PORTAILR,1
0778,0778,"Saint-Martin-d'Hères, Portail Rouge",45.1814,5.76347,,,PORTAILR,1
0779,0779,"Saint-Martin-d'Hères, Cité Labeye",45.18222,5.76037,,,CITELABE,1
0780,0780,"Saint-Martin-d'Hères, Maison Communale",45.18395,5.75378,,,MAISONCO,1
0781,0781,"Saint-Martin-d'Hères, Maison Communale",45.18401,5.75376,,,MAISONCO,1
0782,0782,"Saint-Martin-d'Hères, Croix Rouge",45.18558,5.7479,,,CROIXROU,1
0785,0785,"Grenoble, Bir Hakeim",45.18886,5.73639,,,BIRHAKEI,1
0786,0786,"Grenoble, Bir Hakeim",45.18879,5.73676,,,BIRHAKEI,1
0789,0789,"Saint-Martin-d'Hères, Henri Wallon",45.17591,5.76456,,,HENRIWAL,1
0790,0790,"Saint-Martin-d'Hères, 8 mai 1945",45.17106,5.75691,,,8MAI1945,1
0791,0791,"Saint-Martin-d'Hères, Zella Mehlis",45.16752,5.75421,,,ZELLAMEL,1
0792,0792,"Saint-Martin-d'Hères, Le Marais",45.16403,5.7507,,,LEMARAIS,1
0793,0793,"Grenoble, Maison des Anciens",45.15975,5.72325,,,MAISANCI,1
0797,0797,"Grenoble, Malherbe",45.16892,5.73308,,,MALHERBE,1
0798,0798,"Grenoble, Louis Jouvet",45.16987,5.73691,,,LOUISJOU,1
0799,0799,"Grenoble, Teisseire",45.17076,5.74031,,,TEISSEIR,1
0800,0800,"Grenoble, Teisseire",45.17081,5.74016,,,TEISSEIR,1
0801,0801,"Grenoble, Paul Cocat",45.17264,5.74578,,,PAULCOCA,1
0802,0802,"Grenoble, Palais de Justice - Gare",45.19164,5.71086,,,PALJUSTI,1
0805,0805,"Grenoble, Saint-Augustin",45.17817,5.7454,,,STAUGUST,1
0806,0806,"Grenoble, Bon Pasteur",45.17875,5.75089,,,BONPASTE,1
0808,0808,"Saint-Martin-d'Hères, Edouard Vaillant",45.17905,5.75493,,,EDVAILLA,1
0814,0814,"Grenoble, Hôtel de Police",45.1934,5.73617,,,HOPOLICE,1
0815,0815,"Grenoble, Mutualité",45.1907,5.73547,,,MUTUALIT,1
0821,0821,"Grenoble, Mallifaud",45.18042,5.73514,,,MALLIFAU,1
0822,0822,"Grenoble, Mallifaud",45.18033,5.73508,,,MALLIFAU,1
0823,0823,"Grenoble, Bajatière",45.1783,5.73616,,,BAJATIER,1
0824,0824,"Grenoble, Bajatière",45.17814,5.73614,,,BAJATIER,1
0825,0825,"Grenoble, Ponsard",45.17607,5.73726,,,PONSARD,1
0826,0826,"Grenoble, Ponsard",45.17597,5.7372,,,PONSARD,1
0827,0827,"Grenoble, Paul Claudel",45.17341,5.73857,,,PCLAUDEL,1
0828,0828,"Grenoble, Paul Claudel",45.17336,5.73851,,,PCLAUDEL,1
0829,0829,"Grenoble, Teisseire",45.17103,5.7398,,,TEISSEIR,1
0830,0830,"Grenoble, Teisseire",45.17091,5.73971,,,TEISSEIR,1
0831,0831,"Grenoble, Jean Racine",45.16754,5.74151,,,JRACINE,1
0832,0832,"Grenoble, Jean Racine",45.16683,5.74175,,,JRACINE,1
0834,0834,"Grenoble, Notre-Dame - Musée",45.19391,5.73216,,,NOTREDAM,1
0835,0835,"Grenoble, Notre-Dame - Musée",45.19411,5.73192,,,NOTREDAM,1
0836,0836,"Grenoble, Hôtel de Police",45.19409,5.73571,,,HOPOLICE,1
0837,0837,"Grenoble, Saint-Roch",45.19167,5.7379,,,STROCH,1
0838,0838,"Grenoble, Saint-Roch",45.19173,5.73799,,,STROCH,1
0840,0840,"Grenoble, Saint-Bruno",45.18588,5.71363,,,STBRUNNC,1
0842,0842,"Le Gua, Prélenfrey Eglise",45.01693,5.61329,,,PRELENFR,0
0844,0844,"Grenoble, Champs-Elysées",45.17794,5.71025,,,CHAMPSEL,1
0845,0845,"Grenoble, Champs-Elysées",45.17831,5.71056,,,CHAMPSEL,1
0846,0846,"Grenoble, Salengro",45.17557,5.70893,,,SALENGRO,1
0847,0847,"Grenoble, Salengro",45.17566,5.70887,,,SALENGRO,1
0850,0850,"Grenoble, Anatole France",45.17209,5.70505,,,ANATFRAN,1
0851,0851,"Grenoble, Anatole France",45.17186,5.70495,,,ANATFRAN,1
0853,0853,"Grenoble, Cité Paul Mistral",45.16863,5.70487,,,CITEPMIS,1
0854,0854,"Grenoble, Cité Paul Mistral",45.16855,5.70479,,,CITEPMIS,1
0855,0855,"Grenoble, Bachelard",45.16669,5.70665,,,BACHELAR,1
0856,0856,"Grenoble, Bachelard",45.16718,5.7052,,,BACHELAR,1
0859,0859,"Grenoble, Verlaine",45.16193,5.71613,,,VERLAINE,1
0860,0860,"Grenoble, Verlaine",45.16162,5.71603,,,VERLAINE,1
0862,0862,"Saint-Égrève, Les Bonnais",45.23978,5.67287,,,BONNAIS,0
0863,0863,"Saint-Égrève, Moutonnées",45.22808,5.68436,,,MOUTONNE,1
0872,0872,"Grenoble, Madeleine",45.18515,5.74324,,,MADELEIN,1
0873,0873,"Grenoble, Jeanne d'Arc",45.18177,5.74518,,,JEANNARC,1
0874,0874,"Saint-Martin-d'Hères, Grand Châtelet",45.18194,5.74841,,,GDCHATEL,1
0876,0876,"Saint-Martin-d'Hères, Bon Pasteur",45.17939,5.75087,,,BONPASTE,1
0877,0877,"Grenoble, Bon Pasteur",45.17823,5.75147,,,BONPASTE,1
0878,0878,"Saint-Martin-d'Hères, Edmond Rostand",45.17441,5.75429,,,EDROSTAN,1
0879,0879,"Saint-Martin-d'Hères, Etienne Grappe",45.17213,5.75712,,,ETIEGRAP,1
0880,0880,"Saint-Martin-d'Hères, Potié",45.17089,5.75848,,,POTIE,1
0881,0881,"Saint-Martin-d'Hères, Croix du Pâtre",45.16821,5.76174,,,CXPATRE,1
0882,0882,"Saint-Martin-d'Hères, Glaïeuls",45.17006,5.76398,,,GLAIEULS,1
0884,0884,"Grenoble, Verdun - Préfecture",45.18828,5.73163,,,VERDUN,1
0889,0889,"Grenoble, Cité Jean Macé",45.1989,5.71095,,,CITEMACE,1
0890,0890,"Grenoble, Arago",45.197,5.71178,,,ARAGO,1
0891,0891,"Grenoble, Emile Gueymard",45.19501,5.71351,,,EMILGUEY,1
0892,0892,"Grenoble, Gares",45.19155,5.71525,,,GARES,1
0893,0893,"Grenoble, Gares",45.19149,5.71514,,,GARES,1
0894,0894,"Grenoble, Félix Viallet",45.19068,5.71769,,,FELIXVIA,1
0895,0895,"Grenoble, Félix Viallet",45.19073,5.71847,,,FELIXVIA,1
0896,0896,"Grenoble, Auguste Ravier",45.18399,5.73965,,,AUGURAVI,1
0897,0897,"Grenoble, Auguste Ravier",45.18378,5.73885,,,AUGURAVI,1
0898,0898,"Grenoble, Clémenceau",45.18388,5.74107,,,CLEMENCE,0
0900,0900,"Grenoble, Edison",45.18115,5.74129,,,EDISON,1
0901,0901,"Grenoble, Suzanne Noël - Les Bains",45.17889,5.74249,,,LESBAINS,1
0902,0902,"Grenoble, Paul Cocat",45.17196,5.74543,,,PAULCOCA,1
0903,0903,"Grenoble, Léon Jouhaux",45.16899,5.74444,,,LEONJOUH,1
0904,0904,"Grenoble, Léon Jouhaux",45.16928,5.74462,,,LEONJOUH,1
0905,0905,"Saint-Martin-d'Hères, Pierre Loti",45.16666,5.74656,,,PIERRELO,1
0906,0906,"Saint-Martin-d'Hères, Paul Eluard",45.16506,5.7491,,,PAULELUA,1
0907,0907,"Grenoble, Victor Hugo",45.18977,5.72454,,,VICTHUGO,0
0909,0909,"Saint-Martin-d'Hères, Clinique Belledonne",45.18591,5.76032,,,CLINBELD,1
0910,0910,"Saint-Martin-d'Hères, Clinique Belledonne",45.18598,5.76095,,,CLINBELD,1
0911,0911,"Saint-Martin-d'Hères, Neyrpic - Belledonne",45.1867,5.75716,,,NEYRBELL,1
0912,0912,"Saint-Martin-d'Hères, Péri - Brossolette",45.18762,5.7526,,,PERIBROS,1
0915,0915,"Sassenage, Place de la Libération",45.20682,5.66281,,,PLIBERAT,1
0917,0917,"Sassenage, Trefforine",45.2041,5.66524,,,TREFFORI,1
0918,0918,"Sassenage, Pré Fleury",45.20183,5.66763,,,PREFLEUR,1
0919,0919,"Sassenage, Pré Fleury",45.20145,5.66791,,,PREFLEUR,1
0920,0920,"Sassenage, Les Pies",45.19957,5.66989,,,LESPIES,1
0921,0921,"Sassenage, Les Pies",45.19952,5.66985,,,LESPIES,1
0923,0923,"Grenoble, Berriat-Le Magasin",45.18849,5.7058,,,BERRIAT,1
0924,0924,"Grenoble, Berriat-Le Magasin",45.18867,5.70591,,,BERRIAT,1
0925,0925,"Grenoble, Cémoi",45.1849,5.70564,,,CEMOI,1
0926,0926,"Grenoble, Cémoi",45.18495,5.70573,,,CEMOI,1
0941,0941,"Grenoble, Cité Jean Macé",45.19892,5.711,,,CITEMACE,0
0945,0945,"Grenoble, Alsace-Lorraine",45.18828,5.719,,,ALSACELO,0
0948,0948,"Grenoble, Cité Jean Macé",45.20038,5.71123,,,CITEMACE,1
0968,0968,"La Tronche, Hôpital Michallon",45.1973,5.74707,,,HOPMICHA,0
0969,0969,"La Tronche, Hôpital Michallon",45.19707,5.74784,,,HOPMICHA,0
0971,0971,"Eybens, Alpexpo",45.15449,5.73379,,,ALPEXPO,1
0972,0972,"Grenoble, Polesud - Alpexpo",45.15715,5.73384,,,POLESUD,1
0973,0973,"Eybens, Alpexpo",45.15422,5.73367,,,ALPEXPO,1
0974,0974,"Grenoble, Polesud - Alpexpo",45.15706,5.73368,,,POLESUD,1
0976,0976,"Seyssins, Seyssins Rondeau",45.16022,5.69369,,,SEYSROND,1
0977,0977,"Seyssins, Seyssins Rondeau",45.16036,5.69373,,,SEYSROND,1
0984,0984,"Saint-Égrève, Vence EcoParc",45.22745,5.66853,,,VENCEECO,1
0985,0985,"Saint-Égrève, Vence EcoParc",45.22773,5.66846,,,VENCEECO,1
0987,0987,"Le Gua, Le Gua Mairie",45.02219,5.64454,,,LEGUAMAI,0
0988,0988,"Le Gua, Le Gua Mairie",45.02211,5.64457,,,LEGUAMAI,0
0989,0989,"Le Gua, Les Rossets",45.01679,5.6408,,,ROSSETS,0
0990,0990,"Le Gua, Les Rossets",45.01657,5.64083,,,ROSSETS,0
0991,0991,"Le Gua, La Charrière",45.01277,5.61587,,,LACHARRI,0
0992,0992,"Le Gua, La Charrière",45.01286,5.61595,,,LACHARRI,0
0993,0993,"Le Gua, Les Faures",45.01439,5.61354,,,LESFAURE,0
0994,0994,"Le Gua, Les Faures",45.01447,5.61372,,,LESFAURE,0
0995,0995,"Le Gua, La Pierre",44.98916,5.62198,,,LAPIERRE,0
0997,0997,"Miribel-Lanchâtre, Cassoulet",44.98181,5.623,,,CASSOULE,0
0998,0998,"Miribel-Lanchâtre, Cassoulet",44.98229,5.62309,,,CASSOULE,0
0999,0999,"Miribel-Lanchâtre, Bayanne",44.98074,5.62288,,,BAYANNE,0
1000,1000,"Miribel-Lanchâtre, Bayanne",44.97996,5.62235,,,BAYANNE,0
1001,1001,"Miribel-Lanchâtre, Miribel",44.9747,5.62087,,,MIRIBEL,0
1002,1002,"Miribel-Lanchâtre, Miribel",44.97466,5.621,,,MIRIBEL,0
1012,1012,"Saint-Martin-le-Vinoux, Col de Clémencières",45.2342,5.72564,,,COLCLEME,0
1019,1019,"Varces-Allières-et-Risset, Notre-Dame de Lachal",45.08732,5.69015,,,NODAMLAC,0
1020,1020,"Varces-Allières-et-Risset, Notre-Dame de Lachal",45.08736,5.69011,,,NODAMLAC,0
1021,1021,"Varces-Allières-et-Risset, Berliognière",45.08984,5.69258,,,BERLIOGN,0
1022,1022,"Varces-Allières-et-Risset, Berliognière",45.08998,5.6925,,,BERLIOGN,0
1023,1023,"Meylan, Grésivaudan",45.20969,5.7612,,,GRESIVAU,1
1024,1024,"Varces-Allières-et-Risset, Balzac",45.08729,5.69415,,,BALZAZ,0
1027,1027,"Saint-Égrève, Pont de Vence",45.23038,5.6835,,,PTVENCE,1
1028,1028,"Saint-Égrève, Visancourt",45.23296,5.68577,,,VISANCOU,1
1029,1029,"Saint-Égrève, Muret",45.22587,5.68629,,,MURET,1
1032,1032,"Varces-Allières-et-Risset, Balzac",45.08728,5.69421,,,BALZAZ,0
1034,1034,"Varces-Allières-et-Risset, Rozatière",45.08711,5.70253,,,ROZATIER,0
1035,1035,"Échirolles, Antoine Polotti",45.14834,5.7232,,,POLOTTI,1
1037,1037,"Gières, Universités - Biologie",45.19195,5.77525,,,BIOLOGIE,1
1040,1040,"Varces-Allières-et-Risset, Rozatière",45.08706,5.70241,,,ROZATIER,0
1041,1041,"Varces-Allières-et-Risset, Fontagneux",45.08729,5.70779,,,FONTAGNE,0
1042,1042,"Varces-Allières-et-Risset, Fontagneux",45.08729,5.70786,,,FONTAGNE,0
1043,1043,"Varces-Allières-et-Risset, Malissolles",45.08385,5.70458,,,MALISSOL,0
1044,1044,"Varces-Allières-et-Risset, Malissolles",45.08396,5.7047,,,MALISSOL,0
1045,1045,"Gières, Le Japin",45.18782,5.80781,,,LEJAPIN,1
1046,1046,"Saint-Martin-d'Hères, Les Alloves",45.17204,5.76518,,,ALLOVES,1
1047,1047,"Échirolles, Monmousseau",45.15327,5.7115,,,MONMOUSS,1
1049,1049,"Grenoble, Gustave Rivet",45.1812,5.72806,,,GUSTRIVE,1
1050,1050,"Grenoble, Massenet",45.16799,5.72124,,,MASSENET,1
1051,1051,"Échirolles, Monmousseau",45.15355,5.71188,,,MONMOUSS,1
1053,1053,"Varces-Allières-et-Risset, Le Gros Chêne",45.07834,5.70205,,,GROSCHEN,0
1056,1056,"Varces-Allières-et-Risset, Le Gros Chêne",45.07832,5.7021,,,GROSCHEN,0
1057,1057,"Vif, Le Refuge",45.07466,5.69955,,,LEREFUGE,0
1058,1058,"Vif, Le Refuge",45.07462,5.69959,,,LEREFUGE,0
1059,1059,"Vif, Rue de la Sacristie",45.07061,5.69518,,,SACRISTI,0
1060,1060,"Saint-Martin-d'Hères, Zella Mehlis",45.16707,5.75353,,,ZELLAMEL,1
1061,1061,"Eybens, Collège des Saules",45.16143,5.74306,,,COLLSAUL,1
1062,1062,"Vif, Rue de la Sacristie",45.07081,5.69538,,,SACRISTI,0
1063,1063,"Vif, Ecole Reymure",45.06914,5.69332,,,ECOLEREY,0
1064,1064,"Vif, Ecole Reymure",45.06908,5.69334,,,ECOLEREY,0
1065,1065,"Vif, La Plaine",45.06663,5.69198,,,PLAINE,0
1067,1067,"Grenoble, Bon Pasteur",45.17859,5.7499,,,BONPASTE,1
1070,1070,"Grenoble, Mutualité",45.19046,5.73662,,,MUTUALIT,1
1071,1071,"Meylan, Granier",45.21027,5.78454,,,GRANIER,1
1073,1073,"Vif, La Plaine",45.06686,5.69213,,,PLAINE,0
1074,1074,"Saint-Martin-d'Hères, Houille Blanche",45.17795,5.7517,,,HOUILLEB,1
1076,1076,"Saint-Égrève, Eglise",45.24016,5.68385,,,EGLISESE,1
1080,1080,"Domène, René Cassin",45.2045,5.84416,,,RENECASS,1
1081,1081,"Domène, René Cassin",45.20424,5.84373,,,RENECASS,1
1083,1083,"Vif, Jacobins",45.06458,5.69127,,,JACOBINS,0
1085,1085,"Vif, Jacobins",45.06442,5.69131,,,JACOBINS,0
1086,1086,"Échirolles, Antoine Polotti",45.1486,5.72251,,,POLOTTI,1
1087,1087,"Échirolles, Fernand Pelloutier",45.15075,5.71561,,,PELLOUTI,1
1088,1088,"Échirolles, Musée Géo Charles",45.14879,5.70172,,,MUSGEOCH,1
1089,1089,"Vif, Le Petit Brion",45.06228,5.69011,,,PETIBRIO,0
1090,1090,"Eybens, Champ Fila",45.15627,5.75497,,,CHAMPFIL,1
1091,1091,"Eybens, Les Ruires-Boétie",45.14932,5.74122,,,RUIRES,1
1092,1092,"Eybens, Odyssée",45.15247,5.74848,,,ODYSSEE,1
1093,1093,"Eybens, Champ Fila",45.15627,5.75505,,,CHAMPFIL,1
1094,1094,"Poisat, Centre Socio-Culturel",45.15941,5.76011,,,CENSOCIO,1
1095,1095,"Échirolles, Fernand Pelloutier",45.15084,5.71482,,,PELLOUTI,1
1097,1097,"Bresson, Bresson Mairie",45.13775,5.74816,,,BRESSON,1
1100,1100,"Vif, Le Petit Brion",45.06225,5.69018,,,PETIBRIO,0
1101,1101,"Vif, Mas Garni",45.06056,5.68779,,,MASGARNI,0
1104,1104,"Échirolles, Commanderie",45.14367,5.73288,,,COMMANDE,0
1106,1106,"Veurey-Voroize, Les Marronniers",45.27636,5.61105,,,MARRONNI,0
1107,1107,"Veurey-Voroize, Les Marronniers",45.27594,5.61,,,MARRONNI,0
1109,1109,"Fontaine, La Sure",45.20228,5.68619,,,LASURE,0
1110,1110,"Seyssinet-Pariset, Les Iles",45.1841,5.69716,,,LESILES,1
1111,1111,"Seyssinet-Pariset, Les Iles",45.18417,5.69713,,,LESILES,1
1112,1112,"Meylan, Les Béalières",45.21146,5.79145,,,BEALIERE,1
1113,1113,"Meylan, Lycée du Grésivaudan",45.21334,5.78103,,,LYCGRESI,1
1114,1114,"Vif, Mas Garni",45.06078,5.68819,,,MASGARNI,0
1118,1118,"Saint-Martin-d'Hères, Le Carina",45.16238,5.76305,,,CARINA,1
1119,1119,"Saint-Martin-d'Hères, Le Carina",45.16235,5.76287,,,CARINA,1
1120,1120,"Grenoble, Abbé Grégoire",45.18389,5.71174,,,ABBEGREG,1
1121,1121,"Sassenage, Chamechaude",45.20511,5.68348,,,CHAMECHA,0
1122,1122,"Fontaine, Chamechaude",45.20504,5.6835,,,CHAMECHA,0
1124,1124,"Claix, La Chièze",45.12151,5.68143,,,CHIEZE,1
1125,1125,"Claix, La Ronzy",45.12083,5.67593,,,RONZY,1
1126,1126,"Fontaine, La Sure",45.20263,5.686,,,LASURE,0
1127,1127,"Vif, Allée des Granges",45.05794,5.68474,,,ALEGRANG,0
1128,1128,"Fontaine, Saint-Eynard",45.20113,5.69021,,,STEYNARD,1
1129,1129,"Fontaine, Saint-Eynard",45.2014,5.6899,,,STEYNARD,1
1130,1130,"Vif, Allée des Granges",45.05785,5.68478,,,ALEGRANG,0
1131,1131,"Vif, Z.A. des Speyres",45.05691,5.68171,,,ZASPEYRE,0
1133,1133,"Vif, Z.A. des Speyres",45.0569,5.68184,,,ZASPEYRE,0
1134,1134,"La Tronche, Vercors",45.20065,5.75103,,,VERCORS,1
1138,1138,"Grenoble, Marceau - Jardin des Vallons",45.18245,5.72217,,,MARCEAU,1
1139,1139,"Grenoble, Marceau - Jardin des Vallons",45.18263,5.72195,,,MARCEAU,1
1145,1145,"Grenoble, Veyret",45.19479,5.7248,,,VEYRET,0
1149,1149,"Seyssinet-Pariset, Seyssinet Village",45.17052,5.68071,,,SNETVILA,0
1152,1152,"Grenoble, Chorier - Condorcet",45.18593,5.71744,,,CHORCOND,1
1153,1153,"Grenoble, Chorier - Condorcet",45.18588,5.71725,,,CHORCOND,1
1160,1160,"Domène, Les Vernes",45.20736,5.83392,,,VERNES,1
1161,1161,"Domène, Les Vernes",45.20714,5.83398,,,VERNES,1
1165,1165,"Poisat, Centre Socio-Culturel",45.15899,5.75955,,,CENSOCIO,1
1166,1166,"Échirolles, Le Village",45.14133,5.72057,,,VILLAGE,1
1167,1167,"Corenc, Montfleury",45.21186,5.75637,,,MONTFLEU,1
1170,1170,"Corenc, Croix de Montfleury",45.20879,5.74934,,,CXMONTFL,1
1173,1173,"Meylan, Malacher",45.21122,5.78722,,,MALACHER,1
1177,1177,"Saint-Égrève, Pont de Vence",45.23012,5.68332,,,PTVENCE,1
1181,1181,"Veurey-Voroize, Les Echalières",45.26824,5.61944,,,ECHALIER,1
1182,1182,"Gières, Universités - Biologie",45.19195,5.77474,,,BIOLOGIE,1
1185,1185,"Échirolles, Denis Papin",45.13887,5.71323,,,DENPAPIN,1
1186,1186,"Échirolles, Denis Papin",45.13825,5.71271,,,DENPAPIN,1
1187,1187,"Échirolles, Auguste Ferrier",45.14483,5.70962,,,AUGUFERR,1
1188,1188,"Eybens, Val d'Eybens",45.15905,5.74558,,,VALEYBEN,1
1193,1193,"Échirolles, Gay Lussac",45.13582,5.71243,,,GAYLUSSA,1
1195,1195,"Saint-Égrève, Cuvilleux",45.23469,5.6874,,,CUVILLEU,1
1202,1202,"Grenoble, Xavier Jouvin",45.1956,5.73009,,,XAVJOUVI,1
1204,1204,"Saint-Martin-d'Hères, Le Marais",45.16358,5.75128,,,LEMARAIS,0
1205,1205,"Le Pont-de-Claix, L'Etoile",45.13791,5.70227,,,LETOILE,1
1206,1206,"Champ-sur-Drac, Stade Perrouault",45.07546,5.72739,,,STADEPER,0
1209,1209,"Échirolles, Bayard",45.1464,5.70511,,,BAYARD,1
120TOISE,GEN120TOISE,"Le Pont-de-Claix, 120 Toises",45.13625,5.69496,,1,,0
1210,1210,"Le Pont-de-Claix, L'Etoile",45.13786,5.70205,,,LETOILE,1
1211,1211,"Le Pont-de-Claix, Clos Dominique",45.13547,5.70127,,,CLOSDOMI,1
1215,1215,"Échirolles, Bayard",45.14565,5.70465,,,BAYARD,1
1216,1216,"Échirolles, Quinzaine",45.15166,5.70689,,,QUINZAIN,1
1224,1224,"Échirolles, Quinzaine",45.15149,5.70664,,,QUINZAIN,1
1225,1225,"Claix, Pompidou",45.11993,5.69255,,,POMPIDOU,1
1226,1226,"Échirolles, Bayard",45.14603,5.70431,,,BAYARD,1
1227,1227,"Le Pont-de-Claix, Clos Dominique",45.13581,5.70154,,,CLOSDOMI,1
1230,1230,"Échirolles, Colonel Manhès",45.14647,5.70177,,,COLMANHE,1
1232,1232,"Gières, Roseraie",45.17901,5.781,,,ROSERAIE,1
1236,1236,"Eybens, Odyssée",45.1529,5.74902,,,ODYSSEE,1
1238,1238,"Échirolles, Paul Langevin",45.14346,5.72313,,,LANGEVIN,1
1239,1239,"Échirolles, Paul Langevin",45.14327,5.72275,,,LANGEVIN,1
1241,1241,"Corenc, Le Cèdre",45.20726,5.75533,,,CEDRE,1
1242,1242,"La Tronche, Bastille",45.20444,5.73759,,,BASTILLE,1
1244,1244,"Fontaine, Rue des Alpes",45.19832,5.68145,,,RUEALPES,0
1245,1245,"Poisat, Robespierre",45.1598,5.75735,,,ROBESPIE,1
1248,1248,"Proveysieux, Le Bazeau",45.26581,5.69975,,,BAZE,0
1249,1249,"Meylan, Jules Flandrin",45.20877,5.75903,,,JFLANDRI,1
1251,1251,"Seyssins, La Baume",45.16051,5.68996,,,LABAUME,1
1252,1252,"Veurey-Voroize, La Rive",45.26982,5.61825,,,VEUREYRI,1
1253,1253,"Veurey-Voroize, La Rive",45.26943,5.61816,,,VEUREYRI,1
1258,1258,"Seyssinet-Pariset, Beau Site",45.17591,5.69696,,,BEAUSITE,1
1259,1259,"Meylan, Le Cèdre",45.2078,5.75673,,,CEDRE,1
1260,1260,"Corenc, Jules Flandrin",45.20829,5.7578,,,JFLANDRI,1
1261,1261,"Eybens, Les Ruires-Boétie",45.14936,5.74115,,,RUIRES,1
1262,1262,"Corenc, Grésivaudan",45.20997,5.76177,,,GRESIVAU,1
1263,1263,"Seyssinet-Pariset, Seyssinet Village",45.17051,5.68077,,,SNETVILA,1
1264,1264,"Échirolles, Paul Héroult",45.1478,5.71286,,,PHEROULT,1
1265,1265,"Saint-Martin-d'Hères, Bibliothèques Universitaires",45.19169,5.77029,,,BIBLIUNI,1
1266,1266,"Claix, Pompidou",45.11986,5.69267,,,POMPIDOU,1
1269,1269,"Bresson, Les Vignes",45.13808,5.74566,,,VIGNES,1
1270,1270,"Échirolles, Auguste Ferrier",45.14491,5.70975,,,AUGUFERR,1
1272,1272,"Grenoble, Clos d'Or",45.16946,5.72255,,,CLOSDOR,1
1273,1273,"Grenoble, Paul Cocat",45.17226,5.74478,,,PAULCOCA,1
1277,1277,"Saint-Martin-d'Hères, Champ Roman",45.18434,5.76769,,,CHAMPROM,1
1278,1278,"Domène, Domène Mairie",45.20137,5.83815,,,DOMENEMA,1
1283,1283,"Gières, Universités - IUT - UFRAPS",45.19766,5.77588,,,IUTUFRAP,1
1285,1285,"Saint-Martin-d'Hères, Champ Roman",45.18389,5.76816,,,CHAMPROM,1
1286,1286,"Saint-Martin-d'Hères, Coli",45.18028,5.76626,,,COLI,1
1287,1287,"Saint-Martin-d'Hères, Coli",45.17992,5.76542,,,COLI,1
1288,1288,"Varces-Allières-et-Risset, Stendhal",45.0871,5.68587,,,STEND,0
1289,1289,"Varces-Allières-et-Risset, Stendhal",45.08685,5.68503,,,STEND,0
1292,1292,"Saint-Égrève, Karben",45.24299,5.67118,,,KARBEN,1
1293,1293,"Saint-Égrève, Karben",45.24291,5.67138,,,KARBEN,1
1294,1294,"Saint-Égrève, CAP 38",45.24007,5.66683,,,CAP38,1
1295,1295,"Saint-Égrève, La Biolle - Gare",45.23522,5.66953,,,BIOLLE,1
1296,1296,"Saint-Égrève, La Biolle - Gare",45.2355,5.66988,,,BIOLLE,0
1297,1297,"Saint-Égrève, Saint Egrève Gare",45.23581,5.67154,,,STEGVGAR,1
1298,1298,"Saint-Égrève, Belledonne",45.22268,5.684,,,BELLEDON,1
1299,1299,"Saint-Égrève, Belledonne",45.22272,5.68403,,,BELLEDON,1
1303,1303,"Saint-Égrève, Les Glairaux",45.21853,5.67991,,,GLAIRAUX,1
1304,1304,"Saint-Égrève, Les Glairaux",45.21946,5.67963,,,GLAIRAUX,1
1310,1310,"Le Pont-de-Claix, Gendarmerie",45.14003,5.69852,,,LALUIRE,1
1316,1316,"Eybens, Général de Gaulle",45.16113,5.74449,,,DEGAULLE,1
1317,1317,"Eybens, Général de Gaulle",45.1624,5.74402,,,DEGAULLE,1
1318,1318,"Eybens, Le Bourg",45.14791,5.75117,,,LEBOURG,1
1319,1319,"Eybens, Le Bourg",45.14781,5.75116,,,LEBOURG,1
1327,1327,"Grenoble, Le Rabot",45.19505,5.72342,,,RABOT,1
1329,1329,"Saint-Égrève, Fiancey - Prédieu",45.22352,5.68752,,,PREDIEU,1
1330,1330,"Saint-Égrève, Fiancey - Prédieu",45.22339,5.68704,,,PREDIEU,1
1333,1333,"Eybens, La Grange du Château",45.14852,5.75261,,,GRANGECH,1
1343,1343,"Meylan, Busserolles",45.20888,5.79755,,,BUSSEROL,0
1359,1359,"Échirolles, Guy Mocquet",45.14548,5.72585,,,GUYMOCQU,1
1360,1360,"Échirolles, Guy Mocquet",45.14511,5.72519,,,GUYMOCQU,1
1361,1361,"Sassenage, Le Gua",45.20969,5.66443,,,LEGUA,1
1362,1362,"Sassenage, L'Ovalie",45.20967,5.66695,,,OVALIE,1
1365,1365,"Sassenage, Le Gua",45.20971,5.66437,,,LEGUA,1
1371,1371,"Saint-Martin-d'Uriage, Maupas",45.15926,5.81904,,,MAUPA,0
1372,1372,"Saint-Martin-d'Uriage, Maupas",45.15886,5.81939,,,MAUPA,0
1373,1373,"Noyarey, Noyarey Village",45.24725,5.62706,,,NOYVILLA,0
1374,1374,"Noyarey, Noyarey Village",45.24726,5.62711,,,NOYVILLA,0
1376,1376,"Saint-Égrève, Saint Egrève Gare",45.23531,5.67151,,,STEGVGAR,1
1379,1379,"Le Pont-de-Claix, Irène Joliot-Curie",45.12742,5.69856,,,IRENEJOL,1
1380,1380,"Le Pont-de-Claix, Irène Joliot-Curie",45.128,5.69892,,,IRENEJOL,1
1399,1399,"Sassenage, Complexe Sportif",45.21142,5.67271,,,COMPLEXE,1
1400,1400,"Sassenage, François Blumet",45.20966,5.677,,,FRBLUMET,0
1403,1403,"Grenoble, Martyrs - Résistance",45.2081,5.69661,,,MARESIST,1
1404,1404,"Grenoble, Martyrs - Résistance",45.20844,5.69644,,,MARESIST,1
1406,1406,"Sassenage, François Blumet",45.20994,5.67673,,,FRBLUMET,0
1407,1407,"Sassenage, Complexe Sportif",45.21136,5.67252,,,COMPLEXE,1
1438,1438,"Saint-Martin-le-Vinoux, Collège Chartreuse",45.21784,5.69096,,,COLCHART,0
1441,1441,"La Tronche, Sablons",45.19751,5.75366,,,SABLONS,1
1442,1442,"La Tronche, Sablons",45.19678,5.75299,,,SABLONS,1
1444,1444,"Grenoble, Docteur Schweitzer",45.17245,5.70632,,,DRSCHWEI,1
1446,1446,"Grenoble, Flaubert - Clos d'Or",45.1707,5.72722,,,FLAUCLOS,1
1447,1447,"Grenoble, Stalingrad-Alliés",45.17188,5.72396,,,STALALLI,1
1448,1448,"Grenoble, Marché d'Intérêt National",45.17354,5.71805,,,MAINNATI,1
1449,1449,"Grenoble, Alliés",45.17471,5.7143,,,ALLIES,1
1450,1450,"Grenoble, Lys Rouge",45.17304,5.71057,,,LYSROUGE,1
1451,1451,"Grenoble, Rosa Parks",45.17497,5.70521,,,RHINDANU,1
1452,1452,"Grenoble, Vallier - Catane",45.17968,5.70546,,,VALLCATA,1
1453,1453,"Grenoble, Vallier - Catane",45.17967,5.7053,,,VALLCATA,1
1454,1454,"Grenoble, Rosa Parks",45.17511,5.70511,,,RHINDANU,1
1455,1455,"Grenoble, Alliés",45.17445,5.71408,,,ALLIES,1
1456,1456,"Grenoble, Marché d'Intérêt National",45.17342,5.71808,,,MAINNATI,1
1457,1457,"Grenoble, Stalingrad-Alliés",45.17153,5.72482,,,STALALLI,1
1458,1458,"Grenoble, Flaubert - Clos d'Or",45.17032,5.72808,,,FLAUCLOS,1
1467,1467,"Saint-Martin-le-Vinoux, Hôtel de Ville",45.20826,5.70685,,,MAIRIESM,1
1472,1472,"Le Gua, Les Saillants",45.02463,5.6458,,,SAILLANT,0
1473,1473,"Le Gua, Les Saillants",45.02451,5.64571,,,SAILLANT,0
1474,1474,"Vif, Le Pont de Genevrey",45.02792,5.65124,,,PONTGENE,0
1475,1475,"Vif, Le Pont de Genevrey",45.02852,5.65171,,,PONTGENE,0
1476,1476,"Vif, L'Usine Nord",45.02988,5.65278,,,USINENOR,0
1477,1477,"Vif, L'Usine Nord",45.03,5.65281,,,USINENOR,0
1478,1478,"Vif, Le Rif",45.03258,5.65578,,,LERIF,1
1479,1479,"Vif, Le Rif",45.0323,5.65546,,,LERIF,1
1480,1480,"Vif, La Grange",45.03916,5.66118,,,GRANGE,0
1481,1481,"Vif, La Grange",45.03933,5.66127,,,GRANGE,0
1482,1482,"Vif, Le Chalet",45.04355,5.66449,,,CHALET,0
1483,1483,"Vif, Le Chalet",45.04333,5.6644,,,CHALET,0
1484,1484,"Vif, La Cime du Bourg",45.04825,5.66746,,,CIMEBOUR,0
1485,1485,"Vif, La Cime du Bourg",45.04812,5.66739,,,CIMEBOUR,0
1486,1486,"Vif, Rivalta",45.05308,5.6766,,,VIFGEND,1
1487,1487,"Vif, Rivalta",45.05301,5.67655,,,VIFGEND,0
1488,1488,"Vif, Vif Mairie",45.05584,5.66897,,,VIFMAIRI,1
1489,1489,"Vif, Vif Mairie",45.05601,5.6686,,,VIFMAIRI,1
1490,1490,"Vif, Les Garcins",45.06461,5.67052,,,GARCINS,0
1491,1491,"Vif, Les Garcins",45.06315,5.66934,,,GARCINS,0
1492,1492,"Varces-Allières-et-Risset, Pélissière",45.07039,5.67505,,,PELISIER,0
1493,1493,"Varces-Allières-et-Risset, Pélissière",45.07057,5.67506,,,PELISIER,0
1496,1496,"Saint-Paul-de-Varces, Place",45.07167,5.6426,,,SPAULMAI,0
1497,1497,"Saint-Paul-de-Varces, La Croix",45.07055,5.64494,,,CROIX,0
1498,1498,"Saint-Paul-de-Varces, La Croix",45.0705,5.64492,,,CROIX,0
1499,1499,"Saint-Paul-de-Varces, La Garde",45.07049,5.65062,,,GARDE,0
1500,1500,"Saint-Paul-de-Varces, La Garde",45.07042,5.65059,,,GARDE,0
1501,1501,"Saint-Paul-de-Varces, La Bascule",45.07181,5.65496,,,BASCULE,0
1502,1502,"Saint-Paul-de-Varces, La Bascule",45.07174,5.65502,,,BASCULE,0
1503,1503,"Saint-Paul-de-Varces, Le Poulat",45.07444,5.66002,,,POULAT,0
1504,1504,"Saint-Paul-de-Varces, Le Poulat",45.07439,5.66012,,,POULAT,0
1505,1505,"Saint-Paul-de-Varces, Le Meinget",45.07973,5.66297,,,MEINGET,0
1506,1506,"Saint-Paul-de-Varces, Le Meinget",45.07922,5.66282,,,MEINGET,0
1531,1531,"Murianette, La Briot",45.19328,5.82041,,,BRIOT,1
1532,1532,"Murianette, La Briot",45.19299,5.81948,,,BRIOT,1
1544,1544,"Meylan, Norbert Ségard",45.20903,5.79525,,,NORBSEGA,0
1546,1546,"Meylan, Norbert Ségard",45.20928,5.79453,,,NORBSEGA,0
1548,1548,"Saint-Égrève, Rochepleine",45.24435,5.67492,,,ROCHEPLE,1
1549,1549,"Saint-Égrève, Rochepleine",45.24459,5.67517,,,ROCHEPLE,1
1550,1550,"Saint-Martin-d'Hères, Champ Roman",45.18453,5.76746,,,CHAMPROM,1
1557,1557,"Grenoble, Grand'place",45.15924,5.73249,,,GRDPLACE,1
1558,1558,"Grenoble, Grand'place",45.1589,5.73205,,,GRDPLACE,1
1560,1560,"Échirolles, Les Glières",45.14962,5.71167,,,GLIERES,0
1561,1561,"Échirolles, Les Glières",45.1497,5.7116,,,GLIERES,0
1563,1563,"Grenoble, Flandrin - Valmy",45.18649,5.74435,,,VALMY,1
1564,1564,"Grenoble, Flandrin - Valmy",45.18656,5.74436,,,VALMY,1
1565,1565,"Gières, Place de la République",45.18207,5.79269,,,PLREPUBL,1
1566,1566,"Gières, Place de la République",45.18209,5.79257,,,PLREPUBL,1
1568,1568,"Grenoble, Grand'place",45.15889,5.73182,,,GRDPLACE,1
1570,1570,"Grenoble, Grand'place",45.15923,5.73196,,,GRDPLACE,1
1572,1572,"Grenoble, Docteur Schweitzer",45.17238,5.70678,,,DRSCHWEI,1
1573,1573,"Grenoble, Henri Dunant",45.17441,5.7083,,,HDUNANT,1
1574,1574,"Saint-Égrève, Cap des H'",45.21732,5.68127,,,CAPDESH,0
1575,1575,"Eybens, Le Verderet",45.14694,5.75428,,,VERDERET,1
1577,1577,"Eybens, Le Verderet",45.14697,5.75434,,,VERDERET,1
1578,1578,"Eybens, Maisons Neuves",45.16518,5.74269,,,MAISNEUV,1
1579,1579,"Eybens, Maisons Neuves",45.16491,5.74252,,,MAISNEUV,1
1582,1582,"La Tronche, La Tronche Hôpital",45.20076,5.74217,,,TRONCHOP,1
1584,1584,"Eybens, Maisons Neuves",45.16475,5.74232,,,MAISNEUV,1
1589,1589,"Corenc, Croix de Montfleury",45.20883,5.74926,,,CXMONTFL,1
1590,1590,"Grenoble, Saint-Bruno",45.18592,5.71403,,,STBRUNNC,1
1591,1591,"Sassenage, L'Ovalie",45.20976,5.66693,,,OVALIE,1
1598,1598,"Sassenage, Maladière",45.20763,5.68023,,,MALADIER,0
1599,1599,"Veurey-Voroize, Châtelard",45.27353,5.60481,,,CHATELAR,1
1603,1603,"Corenc, Le Cèdre",45.20793,5.75527,,,CEDRE,0
1604,1604,"Corenc, Le Cèdre",45.20783,5.75552,,,CEDRE,0
1605,1605,"Meylan, Croix de Cibeins",45.226,5.7842,,,CXCIBENS,0
1606,1606,"Meylan, Croix de Cibeins",45.22566,5.78461,,,CXCIBENS,0
1608,1608,"Claix, Val d'Allières",45.1069,5.66532,,,VALALLIE,0
1611,1611,"Fontaine, La Poya",45.19727,5.6722,,,LAPOYA,1
1612,1612,"Fontaine, La Poya",45.19708,5.67257,,,LAPOYA,1
1613,1613,"Fontaine, La Poya",45.1972,5.67203,,,LAPOYA,1
1614,1614,"Saint-Égrève, Cap des H'",45.21705,5.68147,,,CAPDESH,1
1617,1617,"Grenoble, Verlaine",45.1621,5.71605,,,VERLAINE,1
1618,1618,"Grenoble, Verlaine",45.16237,5.71617,,,VERLAINE,1
1623,1623,"Eybens, L'Iliade",45.14744,5.74621,,,ILIADE,1
1624,1624,"Eybens, L'Iliade",45.14667,5.74481,,,ILIADE,1
1630,1630,"Grenoble, Grenoble Hôtel de Ville",45.18743,5.73751,,,GREHOTEL,1
1631,1631,"Grenoble, Grenoble Hôtel de Ville",45.18754,5.73736,,,GREHOTEL,1
1633,1633,"La Tronche, Carronnerie - Ile d'Amour",45.20116,5.7588,,,CARONRIE,1
1636,1636,"Meylan, Plaine Fleurie",45.20331,5.76211,,,PLAINEFL,1
1637,1637,"Meylan, Faculté de Pharmacie",45.2119,5.77457,,,FACPHARM,1
1638,1638,"Meylan, Faculté de Pharmacie",45.2115,5.77392,,,FACPHARM,1
1639,1639,"Meylan, La Revirée",45.20741,5.76798,,,REVIREE,1
1641,1641,"Meylan, Lycée du Grésivaudan",45.2134,5.78085,,,LYCGRESI,1
1642,1642,"Meylan, La Détourbe",45.22276,5.79264,,,DETOURBE,0
1645,1645,"Grenoble, Raymond Chanas",45.15942,5.73771,,,RAYCHANA,1
1646,1646,"Grenoble, Raymond Chanas",45.15968,5.73822,,,RAYCHANA,1
1651,1651,"Seyssinet-Pariset, Cimetière",45.16967,5.68346,,,CIMESEYP,1
1652,1652,"Seyssinet-Pariset, Percevalière",45.17016,5.68682,,,PERCEVAL,1
1654,1654,"Seyssinet-Pariset, Seyssinet-Pariset Hôtel de Ville",45.18078,5.69708,,,SEYHDV,1
1655,1655,"Seyssins, Grand Pré - Centre Sud",45.17084,5.69456,,,CENTRESU,1
1656,1656,"Fontaine, Louis Maisonnat",45.18912,5.69409,,,MAISONNA,1
1659,1659,"Fontaine, Louis Maisonnat",45.18906,5.69444,,,MAISONNA,1
1660,1660,"Seyssinet-Pariset, Seyssinet-Pariset Hôtel de Ville",45.18109,5.69707,,,SEYHDV,1
1661,1661,"Seyssinet-Pariset, Grand Pré - Centre Sud",45.17095,5.69462,,,CENTRESU,1
1662,1662,"Seyssinet-Pariset, Percevalière",45.17027,5.6865,,,PERCEVAL,1
1665,1665,"Fontaine, Ancienne Mairie",45.19298,5.67786,,,ANCIEMAI,1
1666,1666,"Fontaine, Ancienne Mairie",45.19272,5.67806,,,ANCIEMAI,1
1667,1667,"Fontaine, Jean Prévost",45.18999,5.68237,,,JEANPREV,1
1668,1668,"Fontaine, Jean Prévost",45.18955,5.68276,,,JEANPREV,1
1669,1669,"Fontaine, Karl Marx",45.18675,5.68707,,,KARLMARX,1
1670,1670,"Fontaine, Karl Marx",45.18652,5.68729,,,KARLMARX,1
1672,1672,"Seyssinet-Pariset, Bergès - Vercors",45.18424,5.6919,,,BERGVERC,1
1686,1686,"Fontaine, Place du Marché Cachin",45.19589,5.69065,,,PLACMARC,1
1689,1689,"Saint-Martin-d'Hères, Neyrpic - Belledonne",45.18587,5.75758,,,NEYRBELL,1
1690,1690,"Saint-Martin-d'Hères, Neyrpic - Belledonne",45.18591,5.75743,,,NEYRBELL,1
1691,1691,"Saint-Martin-le-Vinoux, Louis Gagnière",45.21467,5.68691,,,GAGNIERE,0
1692,1692,"Vif, Uriol",45.06067,5.66866,,,URIOL,1
1693,1693,"Vif, Uriol",45.06063,5.66856,,,URIOL,0
1694,1694,"Varces-Allières-et-Risset, Chambord",45.08501,5.66718,,,CHAMBORD,0
1695,1695,"Varces-Allières-et-Risset, Chambord",45.08518,5.66714,,,CHAMBORD,0
1696,1696,"Grenoble, Chavant",45.18502,5.73233,,,CHAVANT,1
1698,1698,"Grenoble, Chavant",45.18482,5.73245,,,CHAVANT,1
16AOUT44,GEN16AOUT44,"Saint-Martin-le-Vinoux, Résistance",45.20341,5.71433,,1,,0
1706,1706,"Eybens, La Grange du Château",45.14852,5.75262,,,GRANGECH,0
1732,1732,"Échirolles, Drac",45.14938,5.69417,,,DRAC2,1
1733,1733,"Échirolles, Drac",45.14895,5.69397,,,DRAC2,1
1734,1734,"Échirolles, Comboire",45.14583,5.69082,,,COMBOIRE,1
1737,1737,"Seyssins, Hameau des Chaumières",45.15464,5.68953,,,CHAUMIER,1
1738,1738,"Seyssins, Le Prisme",45.16632,5.69038,,,PRISME,1
1739,1739,"Seyssins, Le Prisme",45.16639,5.69055,,,PRISME,1
1740,1740,"Seyssins, Henri Rey",45.14861,5.67807,,,HENRIREY,0
1742,1742,"Claix, La Croix Rolland",45.12942,5.67122,,,CRXROLLA,0
1744,1744,"Claix, La Croix Rolland",45.1292,5.67128,,,CRXROLLA,0
1746,1746,"Seyssins, Henri Rey",45.14876,5.67824,,,HENRIREY,0
1747,1747,"Seyssins, Hameau des Chaumières",45.1547,5.68938,,,CHAUMIER,1
1749,1749,"Seyssins, Le Prisme",45.16636,5.69037,,,PRISME,1
1750,1750,"Claix, Col de Comboire",45.14002,5.67321,,,COLCOMBO,1
1751,1751,"Claix, Col de Comboire",45.14019,5.67315,,,COLCOMBO,1
1755,1755,"Seyssins, Parc François Mitterrand",45.16281,5.68532,,,PFMITTER,1
1756,1756,"Seyssins, Parc François Mitterrand",45.16287,5.6853,,,PFMITTER,1
1757,1757,"Seyssins, L'Agneau",45.1613,5.68295,,,LAGNEAU,1
1758,1758,"Seyssins, Beauvoir",45.15899,5.68325,,,BEAUVOIR,0
1765,1765,"Grenoble, Driant",45.18259,5.73409,,,DRIANT,1
1766,1766,"Grenoble, Driant",45.18229,5.7341,,,DRIANT,1
1768,1768,"Seyssins, Seyssins Village",45.1558,5.68089,,,PLACEVIL,1
1770,1770,"Domène, Coubertin",45.20004,5.83528,,,COUBERTI,1
1771,1771,"Domène, Coubertin",45.20003,5.83537,,,COUBERTI,1
1772,1772,"Seyssinet-Pariset, Tuilerie",45.16904,5.69208,,,TUILERIE,1
1773,1773,"Seyssins, Tuilerie",45.16906,5.69215,,,TUILERIE,1
1779,1779,"Seyssinet-Pariset, Aristide Bergès",45.18507,5.69455,,,ARBERGES,1
1780,1780,"Seyssinet-Pariset, Aristide Bergès",45.18551,5.69465,,,ARBERGES,1
1783,1783,"Grenoble, André Argouges",45.17592,5.74404,,,ARGOUGES,1
1784,1784,"Grenoble, André Argouges",45.17506,5.74475,,,ARGOUGES,1
1785,1785,"Sassenage, Maladière",45.20788,5.67946,,,MALADIER,0
1789,1789,"Sassenage, Château de Sassenage",45.21229,5.66176,,,CHATSASS,1
1790,1790,"Sassenage, Château de Sassenage",45.21224,5.66167,,,CHATSASS,1
1794,1794,"Grenoble, Grand'place",45.15923,5.73219,,,GRDPLACE,1
1836,1836,"Veurey-Voroize, Mairie",45.27311,5.61282,,,VEUREYMA,1
1839,1839,"Claix, Pont Rouge",45.1186,5.69331,,,PTROUGE,1
1840,1840,"Claix, Pont Rouge",45.11858,5.69319,,,PTROUGE,1
1841,1841,"Claix, Pont Rouge",45.11832,5.69254,,,PTROUGE,1
1842,1842,"Le Pont-de-Claix, Pont-de-Claix Mairie",45.12345,5.69775,,,PTCLXMAI,1
1843,1843,"Le Pont-de-Claix, Pont-de-Claix Mairie",45.12288,5.6977,,,PTCLXMAI,1
1850,1850,"Saint-Martin-d'Hères, Etienne Grappe",45.17221,5.75773,,,ETIEGRAP,1
1851,1851,"Saint-Martin-d'Hères, Etienne Grappe",45.17211,5.75752,,,ETIEGRAP,1
1852,1852,"Saint-Martin-d'Hères, Rocheplane",45.1783,5.76236,,,ROCHEPLA,1
1853,1853,"Saint-Martin-d'Hères, Rocheplane",45.17826,5.76231,,,ROCHEPLA,1
1854,1854,"Gières, Epicéa",45.1946,5.77597,,,EPICEA,1
1855,1855,"Gières, Epicéa",45.19584,5.77467,,,EPICEA,1
1858,1858,"Meylan, Busserolles",45.20881,5.79757,,,BUSSEROL,0
1859,1859,"Sassenage, Vieux donjon",45.21137,5.64968,,,VIEUXDON,0
1860,1860,"Sassenage, Vieux donjon",45.21138,5.64977,,,VIEUXDON,0
1861,1861,"Seyssins, Ancienne Gare",45.15978,5.68178,,,ANCIGARE,0
1862,1862,"Seyssins, L'Agneau",45.16196,5.68278,,,LAGNEAU,1
1863,1863,"Saint-Martin-d'Hères, Porte du Grésivaudan",45.18252,5.77665,,,PORTGRES,1
1864,1864,"Saint-Martin-d'Hères, Porte du Grésivaudan",45.18232,5.77697,,,PORTGRES,1
1871,1871,"Claix, Claix Mairie",45.12025,5.67247,,,CLAIXMAI,1
1872,1872,"Claix, Claix Mairie",45.12026,5.67327,,,CLAIXMAI,1
1875,1875,"Claix, Charrières",45.11599,5.68888,,,CHARRIER,0
1876,1876,"Claix, Charrières",45.11599,5.68896,,,CHARRIER,0
1877,1877,"Claix, Saint-Michel",45.11203,5.68452,,,SAINTMIC,0
1878,1878,"Claix, Saint-Michel",45.1122,5.68471,,,SAINTMIC,0
1879,1879,"Claix, Les Bauches",45.11083,5.67865,,,BAUCHES,0
1880,1880,"Varces-Allières-et-Risset, Les Bauches",45.11052,5.67808,,,BAUCHES,0
1889,1889,"Claix, Claix Mairie",45.11972,5.67257,,,CLAIXMAI,0
1890,1890,"Claix, Malhivert",45.13254,5.66688,,,MALHIVER,0
1891,1891,"Claix, Malhivert",45.13207,5.66662,,,MALHIVER,0
1892,1892,"Claix, Chemin de l'Abbé",45.13521,5.66842,,,CHEABBE,0
1893,1893,"Claix, Chemin de l'Abbé",45.13524,5.66835,,,CHEABBE,0
1894,1894,"Claix, Cossey",45.13895,5.67006,,,COSSEY,0
1895,1895,"Claix, Cossey",45.13886,5.67017,,,COSSEY,0
1899,1899,"Seyssins, Pré Nouvel",45.15115,5.68,,,PRENOUVE,1
1900,1900,"Seyssins, Pré Nouvel",45.15124,5.68,,,PRENOUVE,1
1905,1905,"Varces-Allières-et-Risset, La Pommeraie",45.08761,5.67221,,,POMMERAI,0
1906,1906,"Varces-Allières-et-Risset, La Pommeraie",45.08765,5.67206,,,POMMERAI,0
1910,1910,"Varces-Allières-et-Risset, La Giraudière",45.09485,5.68009,,,GIRAUDIE,0
1911,1911,"Varces-Allières-et-Risset, La Giraudière",45.09503,5.67982,,,GIRAUDIE,0
1921,1921,"Claix, Les Taillis",45.11315,5.66589,,,TAILLIS,0
1922,1922,"Claix, Les Taillis",45.11315,5.66577,,,TAILLIS,0
1923,1923,"Claix, Fond Ratel",45.12208,5.6892,,,FONDRATE,0
1924,1924,"Claix, Fond Ratel",45.12215,5.68935,,,FONDRATE,0
1928,1928,"Varces-Allières-et-Risset, Risset",45.10723,5.67309,,,RISSET,0
1929,1929,"Varces-Allières-et-Risset, Pavillon",45.1084,5.67434,,,PAVILLON,0
1930,1930,"Varces-Allières-et-Risset, Pavillon",45.1084,5.67425,,,PAVILLON,0
1933,1933,"Varces-Allières-et-Risset, Rond-Point de l'Europe",45.09312,5.68375,,,RONDEURO,1
1934,1934,"Varces-Allières-et-Risset, Rond-Point de l'Europe",45.09303,5.68364,,,RONDEURO,1
1935,1935,"Varces-Allières-et-Risset, L'Oriel",45.08896,5.68364,,,ORIEL,1
1936,1936,"Varces-Allières-et-Risset, L'Oriel",45.08984,5.68359,,,ORIEL,1
1937,1937,"Eybens, Les Javaux",45.14956,5.74934,,,JAVAUX,0
1938,1938,"Eybens, Les Javaux",45.14979,5.74983,,,JAVAUX,0
1939,1939,"Claix, Pont Rouge",45.1186,5.69289,,,PTROUGE,1
1940,1940,"Varces-Allières-et-Risset, Saint-Ange",45.09759,5.68395,,,STEANGE,1
1941,1941,"Varces-Allières-et-Risset, Saint-Ange",45.09683,5.68367,,,STEANGE,1
1942,1942,"Varces-Allières-et-Risset, Le Rochefort",45.10226,5.68584,,,ROCHEFOR,1
1943,1943,"Varces-Allières-et-Risset, Le Rochefort",45.10164,5.68534,,,ROCHEFOR,1
1944,1944,"Varces-Allières-et-Risset, Pré de l'Orme",45.10893,5.68813,,,PREORME,0
1945,1945,"Varces-Allières-et-Risset, Pré de l'Orme",45.11039,5.68855,,,PREORME,0
1950,1950,"Seyssins, Clinique du Dauphiné",45.16146,5.67351,,,LECELLIE,0
1951,1951,"Seyssins, Clinique du Dauphiné",45.16149,5.67354,,,LECELLIE,0
1953,1953,"Seyssins, Les Côtes",45.15689,5.6708,,,LESCOTES,0
1954,1954,"Seyssins, Le Parlement",45.15863,5.67453,,,LEPARL,1
1955,1955,"Seyssins, Le Parlement",45.15864,5.67447,,,LEPARL,1
1956,1956,"Seyssins, Le Priou",45.15698,5.6788,,,LEPRIOU,0
1957,1957,"Seyssins, Seyssins Village",45.15583,5.68083,,,PLACEVIL,1
1961,1961,"Varces-Allières-et-Risset, République",45.08635,5.68299,,,VARCESRE,1
1962,1962,"Vif, Le Masségu",45.0521,5.67521,,,MASSEGU,1
1963,1963,"Vif, Le Masségu",45.05194,5.67464,,,MASSEGU,1
1969,1969,"Grenoble, Verdun - Préfecture",45.18841,5.73083,,,VERDUN,1
1970,1970,"Grenoble, Verdun - Préfecture",45.18839,5.73105,,,VERDUN,1
1973,1973,"Échirolles, Commanderie",45.14317,5.73349,,,COMMANDE,0
1977,1977,"Seyssins, Seyssins Village",45.1564,5.6814,,,SEYSVILL,1
1978,1978,"Seyssins, Seyssins Village",45.15628,5.68128,,,SEYVILLA,1
1986,1986,"Grenoble, Caserne de Bonne",45.18506,5.72533,,,CASBONNE,1
1987,1987,"Grenoble, Caserne de Bonne",45.18509,5.72542,,,CASBONNE,1
1988,1988,"Saint-Égrève, San Marino - Barrage",45.23716,5.6607,,,SAMMARIN,0
1990,1990,"Grenoble, Chavant",45.18567,5.7326,,,CHAVANT,1
1991,1991,"Grenoble, Chavant",45.18534,5.73149,,,CHAVANT,1
1994,1994,"Meylan, Aiguinards-Hexagone",45.20508,5.76438,,,AIGUIHEX,1
1995,1995,"Meylan, Aiguinards-Hexagone",45.20512,5.76472,,,AIGUIHEX,1
2004,2004,"Grenoble, Arlequin",45.16359,5.73056,,,ARLEQUIN,1
2005,2005,"Grenoble, Arlequin",45.16359,5.73048,,,ARLEQUIN,1
2006,2006,"Grenoble, La Bruyère-Parc Jean Verlhac",45.16632,5.73124,,,BRUYERE,1
2007,2007,"Grenoble, La Bruyère-Parc Jean Verlhac",45.16635,5.73118,,,BRUYERE,1
2008,2008,"Grenoble, Malherbe",45.16947,5.73227,,,MALHERBE,1
2009,2009,"Grenoble, Malherbe",45.16937,5.73216,,,MALHERBE,1
2010,2010,"Grenoble, MC2: Maison de la Culture",45.17347,5.73206,,,MAICULTU,1
2011,2011,"Grenoble, MC2: Maison de la Culture",45.17346,5.73196,,,MAICULTU,1
2012,2012,"Grenoble, Mounier",45.17899,5.73186,,,MOUNIER,1
2013,2013,"Grenoble, Mounier",45.179,5.73179,,,MOUNIER,1
2014,2014,"Grenoble, Albert 1er de Belgique",45.18177,5.73173,,,ALB1BELG,1
2015,2015,"Grenoble, Albert 1er de Belgique",45.18168,5.73167,,,ALB1BELG,1
2018,2018,"Grenoble, Verdun - Préfecture",45.18832,5.73152,,,VERDUN,1
2019,2019,"Grenoble, Verdun - Préfecture",45.1883,5.73144,,,VERDUN,1
2020,2020,"Grenoble, Hubert Dubedout - Maison du Tourisme",45.19023,5.72822,,,DUBEDOUT,1
2021,2021,"Grenoble, Hubert Dubedout - Maison du Tourisme",45.1902,5.72822,,,DUBEDOUT,1
2026,2026,"Grenoble, Alsace-Lorraine",45.1895,5.71999,,,ALSACELO,1
2027,2027,"Grenoble, Alsace-Lorraine",45.18946,5.71997,,,ALSACELO,1
2030,2030,"Grenoble, Saint-Bruno",45.18838,5.71343,,,STBRUNO,1
2031,2031,"Grenoble, Saint-Bruno",45.18834,5.71342,,,STBRUNO,1
2032,2032,"Grenoble, Berriat-Le Magasin",45.1888,5.70652,,,BERRIAT,1
2033,2033,"Grenoble, Berriat-Le Magasin",45.18873,5.70672,,,BERRIAT,1
2034,2034,"Fontaine, Les Fontainades - Le Vog",45.18914,5.69845,,,FONTAINA,1
2035,2035,"Fontaine, Les Fontainades - Le Vog",45.18909,5.69844,,,FONTAINA,1
2036,2036,"Fontaine, Louis Maisonnat",45.18923,5.69401,,,MAISONNA,1
2037,2037,"Fontaine, Louis Maisonnat",45.1892,5.69401,,,MAISONNA,1
2038,2038,"Fontaine, Fontaine Hôtel de Ville - La Source",45.19138,5.68729,,,FONTAHDV,1
2039,2039,"Fontaine, Fontaine Hôtel de Ville - La Source",45.19134,5.68727,,,FONTAHDV,1
2040,2040,"Fontaine, Charles Michels",45.1939,5.6801,,,CHARLMIC,1
2041,2041,"Fontaine, Charles Michels",45.19385,5.68009,,,CHARLMIC,1
2043,2043,"Grenoble, Sainte-Claire - Les Halles",45.19147,5.73063,,,STECLAIR,1
2044,2044,"Grenoble, Sainte-Claire - Les Halles",45.19146,5.73068,,,STECLAIR,1
2045,2045,"Grenoble, Notre-Dame - Musée",45.19361,5.73207,,,NOTREDAM,1
2046,2046,"Grenoble, Notre-Dame - Musée",45.19358,5.73214,,,NOTREDAM,1
2047,2047,"Grenoble, Ile Verte",45.19729,5.7367,,,ILEVERTE,1
2048,2048,"Grenoble, Ile Verte",45.19725,5.73676,,,ILEVERTE,1
2049,2049,"Grenoble, La Tronche Hôpital",45.20065,5.74116,,,TRONCHOP,1
2050,2050,"Grenoble, La Tronche Hôpital",45.20061,5.74123,,,TRONCHOP,1
2051,2051,"La Tronche, Michallon",45.20035,5.7453,,,MICHALLO,1
2052,2052,"La Tronche, Michallon",45.20028,5.74533,,,MICHALLO,1
2053,2053,"La Tronche, Grand Sablon",45.19908,5.75001,,,GRDSABLO,1
2054,2054,"La Tronche, Grand Sablon",45.19903,5.75,,,GRDSABLO,1
2055,2055,"Saint-Martin-d'Hères, Les Taillées - Universités",45.19232,5.75789,,,TAILLEES,1
2056,2056,"Saint-Martin-d'Hères, Les Taillées - Universités",45.19224,5.75787,,,TAILLEES,1
2057,2057,"Saint-Martin-d'Hères, Gabriel Fauré",45.19234,5.7643,,,GABFAURE,1
2058,2058,"Saint-Martin-d'Hères, Gabriel Fauré",45.19228,5.76431,,,GABFAURE,1
2059,2059,"Gières, Bibliothèques Universitaires",45.19246,5.77098,,,BIBLIUNI,1
2060,2060,"Grenoble, Polesud - Alpexpo",45.15729,5.73295,,,POLESUD,1
2061,2061,"Grenoble, Polesud - Alpexpo",45.15734,5.73296,,,POLESUD,1
2062,2062,"Échirolles, Les Granges",45.15692,5.7278,,,GRANGES,1
2063,2063,"Échirolles, Les Granges",45.15696,5.72781,,,GRANGES,1
2064,2064,"Échirolles, Surieux",45.15839,5.72187,,,SURIEUX,1
2065,2065,"Échirolles, Surieux",45.15845,5.72192,,,SURIEUX,1
2066,2066,"Échirolles, Essarts - La Butte",45.15588,5.71918,,,ESSARTS,1
2067,2067,"Échirolles, Essarts - La Butte",45.15588,5.71909,,,ESSARTS,1
2068,2068,"Échirolles, La Rampe - Centre-Ville",45.14879,5.71796,,,RAMPE,1
2069,2069,"Échirolles, La Rampe - Centre-Ville",45.14879,5.71787,,,RAMPE,1
2070,2070,"Échirolles, Marie Curie",45.14571,5.71718,,,MARIECUR,1
2071,2071,"Échirolles, Marie Curie",45.14573,5.71708,,,MARIECUR,1
2072,2072,"Échirolles, Auguste Delaune",45.1425,5.71536,,,ADELAUNE,1
2073,2073,"Échirolles, Auguste Delaune",45.1425,5.71542,,,ADELAUNE,1
2074,2074,"Échirolles, Denis Papin",45.13831,5.71313,,,DENPAPIN,1
2075,2075,"Échirolles, Denis Papin",45.13832,5.71307,,,DENPAPIN,1
2076,2076,"Grenoble, Palais de Justice - Gare",45.19123,5.71177,,,PALJUSTI,1
2077,2077,"Grenoble, Palais de Justice - Gare",45.19119,5.71169,,,PALJUSTI,1
2092,2092,"Grenoble, Saint-Roch",45.19158,5.73983,,,STROCH,1
2093,2093,"Grenoble, Saint-Roch",45.1915,5.73958,,,STROCH,1
2104,2104,"Varces-Allières-et-Risset, République",45.08684,5.68315,,,VARCESRE,1
2109,2109,"Fontaine, La Poya",45.19709,5.67222,,,LAPOYA,1
2110,2110,"Grenoble, Veyret",45.19483,5.72479,,,VEYRET,0
2115,2115,"Grenoble, Vallier - Libération",45.18016,5.71489,,,VALLIBE,0
2117,2117,"Corenc, Mairie-Condamine",45.21118,5.75092,,,MAIRIECO,0
2118,2118,"Corenc, Charles Pajon",45.2132,5.75244,,,PAJON,0
2119,2119,"Corenc, Monument",45.21644,5.75383,,,MONUMENT,0
2120,2120,"Corenc, La Corne d'Or",45.21813,5.76051,,,CORNEDOR,0
2121,2121,"Corenc, Corenc Village",45.21992,5.76279,,,CORENCVI,0
2122,2122,"Corenc, Providence",45.22101,5.76451,,,PROVIDEN,0
2123,2123,"Corenc, Rochasson",45.22379,5.76792,,,MOLLARD,0
2124,2124,"Corenc, La Garenne",45.22741,5.76592,,,GARENNE,0
2126,2126,"La Tronche, Saint-Germain",45.21015,5.74408,,,STGERMAI,0
2130,2130,"Meylan, Lionel Terray",45.20967,5.76624,,,TERRAY,0
2132,2132,"Meylan, Champlars",45.22023,5.7801,,,CHAMPLAR,0
2133,2133,"Meylan, Croix des Rameaux",45.22355,5.78179,,,CXRAMEAU,0
2135,2135,"Meylan, Gué du Boutet",45.22871,5.7848,,,GUEBOUTE,0
2136,2136,"Meylan, Pré Catlan",45.23019,5.78762,,,PRECATLA,0
2137,2137,"Meylan, Saint-Victor",45.22855,5.78912,,,STVICTOR,0
2138,2138,"Meylan, La Treille",45.22628,5.79116,,,TREILLE,0
2139,2139,"Claix, Mémorial",45.12265,5.69102,,,DRAC,0
2140,2140,"Claix, La Balmette",45.12521,5.68811,,,BALMETTE,0
2141,2141,"Claix, Le Coteau",45.1267,5.6867,,,COTEAU,0
2142,2142,"Claix, Les Cimentiers",45.13047,5.68357,,,CIMENTIE,0
2143,2143,"Claix, Moucherotte",45.12579,5.68096,,,MOUCHERO,0
2144,2144,"Claix, Les Pérouses",45.12457,5.67937,,,PEROUSES,0
2146,2146,"Claix, Furonnières",45.12597,5.6712,,,FURONNIE,0
2148,2148,"Claix, Boulodrome-Ecole",45.11962,5.66899,,,BOULODRO,0
2149,2149,"Claix, Les Pampres",45.11537,5.66589,,,PAMPRES,0
2150,2150,"Claix, Bellevue",45.11196,5.66548,,,BELLEVUE,0
2151,2151,"Claix, La Chanteraie",45.11012,5.66548,,,CHANTERA,0
2153,2153,"Sassenage, Blanc Fontaine",45.21087,5.65628,,,BLANCFON,0
2154,2154,"Sassenage, Les Chênes",45.21815,5.6535,,,CHENES,0
2155,2155,"Sassenage, Les Parcs",45.21654,5.65189,,,PARCS,0
2156,2156,"Sassenage, Rivoire de la Dame",45.21497,5.6516,,,RIVOIRE,0
2157,2157,"Sassenage, Mollard - Pichon",45.21354,5.65237,,,MOLLARDP,0
2158,2158,"Sassenage, Beaurevoir",45.2101,5.64855,,,BEAUREVO,0
2159,2159,"Sassenage, Les Côtes",45.21007,5.64749,,,COTESASS,1
2160,2160,"Corenc, Mairie-Condamine",45.21101,5.75038,,,MAIRIECO,0
2161,2161,"Corenc, Charles Pajon",45.21426,5.75315,,,PAJON,0
2162,2162,"Corenc, Monument",45.21635,5.75384,,,MONUMENT,0
2163,2163,"Corenc, La Corne d'Or",45.21809,5.76046,,,CORNEDOR,0
2164,2164,"Corenc, Corenc Village",45.21983,5.76229,,,CORENCVI,0
2165,2165,"Corenc, Providence",45.22111,5.76456,,,PROVIDEN,0
2166,2166,"Corenc, Rochasson",45.22364,5.7678,,,MOLLARD,0
2169,2169,"La Tronche, Saint-Germain",45.21004,5.74396,,,STGERMAI,0
2172,2172,"Meylan, Lionel Terray",45.21035,5.76713,,,TERRAY,0
2174,2174,"Meylan, Champlars",45.22023,5.77982,,,CHAMPLAR,0
2175,2175,"Meylan, Croix des Rameaux",45.22374,5.78177,,,CXRAMEAU,0
2177,2177,"Meylan, Gué du Boutet",45.22869,5.78464,,,GUEBOUTE,0
2178,2178,"Meylan, Pré Catlan",45.23002,5.78733,,,PRECATLA,0
2179,2179,"Meylan, Saint-Victor",45.22859,5.78928,,,STVICTOR,0
2180,2180,"Meylan, La Treille",45.22639,5.79109,,,TREILLE,0
2181,2181,"Claix, Mémorial",45.12257,5.69108,,,DRAC,0
2182,2182,"Claix, La Balmette",45.12521,5.68805,,,BALMETTE,0
2183,2183,"Claix, Le Coteau",45.12662,5.68673,,,COTEAU,0
2184,2184,"Claix, Les Cimentiers",45.13045,5.68362,,,CIMENTIE,0
2185,2185,"Claix, Moucherotte",45.12564,5.68089,,,MOUCHERO,0
2186,2186,"Claix, Les Pérouses",45.12448,5.67945,,,PEROUSES,0
2188,2188,"Claix, Furonnières",45.12596,5.67132,,,FURONNIE,0
2189,2189,"Claix, Poste",45.1211,5.67214,,,POSTE,0
2190,2190,"Claix, Boulodrome-Ecole",45.11961,5.66934,,,BOULODRO,0
2191,2191,"Claix, Les Pampres",45.11525,5.66603,,,PAMPRES,0
2192,2192,"Claix, Bellevue",45.11178,5.66558,,,BELLEVUE,0
2193,2193,"Claix, La Chanteraie",45.11022,5.6655,,,CHANTERA,0
2194,2194,"Sassenage, Blanc Fontaine",45.21064,5.65625,,,BLANCFON,0
2195,2195,"Sassenage, Les Chênes",45.21809,5.65343,,,CHENES,0
2196,2196,"Sassenage, Les Parcs",45.21658,5.65201,,,PARCS,0
2197,2197,"Sassenage, Rivoire de la Dame",45.21493,5.65169,,,RIVOIRE,0
2198,2198,"Sassenage, Mollard - Pichon",45.21361,5.65249,,,MOLLARDP,0
2199,2199,"Sassenage, Beaurevoir",45.21009,5.64861,,,BEAUREVO,0
2200,2200,"Corenc, Corenc Mairie",45.20973,5.75272,,,CORENCMA,0
2201,2201,"Corenc, Corenc Mairie",45.20972,5.75263,,,CORENCMA,0
2207,2207,"Échirolles, Echirolles Gare",45.15302,5.7185,,,ECHIGARE,1
2208,2208,"Échirolles, Echirolles Gare",45.15303,5.71842,,,ECHIGARE,1
2212,2212,"Grenoble, Grand'place",45.15909,5.73192,,,GRDPLACE,1
2213,2213,"Grenoble, Victor Hugo",45.18978,5.72494,,,VICTHUGO,1
2214,2214,"Grenoble, Gares",45.18996,5.7151,,,GARES,1
2215,2215,"Fontaine, La Poya",45.19712,5.67226,,,LAPOYA,1
2216,2216,"Grenoble, Gares",45.19011,5.71521,,,GARES,1
2217,2217,"Grenoble, Victor Hugo",45.18973,5.72498,,,VICTHUGO,1
2218,2218,"Grenoble, Grand'place",45.15901,5.73258,,,GRDPLACE,1
2219,2219,"Grenoble, Cité Internationale",45.19508,5.71127,,,CITEINTE,1
2220,2220,"Grenoble, Cité Internationale",45.19508,5.7112,,,CITEINTE,1
2221,2221,"Seyssins, Le Prisme",45.16639,5.69043,,,PRISME,1
2222,2222,"Seyssins, Le Prisme",45.16641,5.69047,,,PRISME,1
2223,2223,"Seyssins, Mas des Iles",45.16762,5.69421,,,MASDESIL,1
2224,2224,"Seyssins, Mas des Iles",45.16763,5.69433,,,MASDESIL,1
2225,2225,"Seyssinet-Pariset, Grand Pré",45.1721,5.69414,,,GRANDPRE,1
2226,2226,"Seyssinet-Pariset, Grand Pré",45.1721,5.69426,,,GRANDPRE,1
2227,2227,"Seyssinet-Pariset, Fauconnière",45.17651,5.69422,,,FAUCONNI,1
2228,2228,"Seyssinet-Pariset, Fauconnière",45.17651,5.69427,,,FAUCONNI,1
2229,2229,"Seyssinet-Pariset, Seyssinet-Pariset Hôtel de Ville",45.18025,5.69639,,,SEYHDV,1
2230,2230,"Seyssinet-Pariset, Seyssinet-Pariset Hôtel de Ville",45.18021,5.69639,,,SEYHDV,1
2231,2231,"Grenoble, Vallier - Catane",45.18009,5.70621,,,VALLCATA,1
2232,2232,"Grenoble, Vallier - Catane",45.18006,5.70622,,,VALLCATA,1
2233,2233,"Grenoble, Vallier - Docteur Calmette",45.18016,5.71077,,,DRCALME,1
2234,2234,"Grenoble, Vallier - Docteur Calmette",45.18013,5.71077,,,DRCALME,1
2235,2235,"Grenoble, Vallier - Libération",45.18033,5.71565,,,VALLIBE,1
2236,2236,"Grenoble, Vallier - Libération",45.1803,5.71566,,,VALLIBE,1
2237,2237,"Grenoble, Foch - Ferrié",45.18083,5.72255,,,FOCHFERI,1
2238,2238,"Grenoble, Foch - Ferrié",45.1808,5.72256,,,FOCHFERI,1
2239,2239,"Grenoble, Gustave Rivet",45.18236,5.72811,,,GUSTRIVE,1
2240,2240,"Grenoble, Gustave Rivet",45.18233,5.72813,,,GUSTRIVE,1
2241,2241,"Grenoble, Grenoble Hôtel de Ville",45.18749,5.73777,,,GREHOTEL,1
2242,2242,"Grenoble, Grenoble Hôtel de Ville",45.18746,5.73779,,,GREHOTEL,1
2243,2243,"Grenoble, Flandrin - Valmy",45.18721,5.74474,,,VALMY,1
2244,2244,"Grenoble, Flandrin - Valmy",45.18719,5.7448,,,VALMY,1
2245,2245,"Saint-Martin-d'Hères, Neyrpic - Belledonne",45.18685,5.75648,,,NEYRBELL,1
2246,2246,"Saint-Martin-d'Hères, Neyrpic - Belledonne",45.18676,5.75654,,,NEYRBELL,1
2247,2247,"Saint-Martin-d'Hères, Péri - Brossolette",45.18772,5.75142,,,PERIBROS,1
2248,2248,"Saint-Martin-d'Hères, Péri - Brossolette",45.18771,5.75142,,,PERIBROS,1
2249,2249,"Saint-Martin-d'Hères, Hector Berlioz - Universités",45.19111,5.75869,,,HBERLUNI,1
2250,2250,"Saint-Martin-d'Hères, Hector Berlioz - Universités",45.19109,5.75881,,,HBERLUNI,1
2254,2254,"Grenoble, Chavant",45.18466,5.73178,,,CHAVANT,1
2255,2255,"Grenoble, Chavant",45.18466,5.7317,,,CHAVANT,1
2258,2258,"Bresson, Avenue de la République",45.14277,5.73589,,,AVREPUB,0
2259,2259,"Bresson, Avenue de la République",45.14279,5.73589,,,AVREPUB,0
2261,2261,"Sarcenas, Col de Palaquit",45.27308,5.7657,,,PALAQUIT,0
2262,2262,"Sarcenas, Col de Palaquit",45.27319,5.76549,,,PALAQUIT,0
2263,2263,"Le Sappey-en-Chartreuse, Col de Palaquit",45.27269,5.76548,,,PALAQUIT,0
2268,2268,"Corenc, Hameau de Vence",45.24126,5.75354,,,HVENCE,0
2269,2269,"Corenc, Hameau de Vence",45.24117,5.75355,,,HVENCE,0
2270,2270,"Sassenage, Château de Beaurevoir",45.21228,5.65204,,,CHATBEAU,0
2271,2271,"Sassenage, Château de Beaurevoir",45.21233,5.65209,,,CHATBEAU,0
2272,2272,"Grenoble, Chavant",45.18466,5.73178,,,CHAVANT,0
2273,2273,"Grenoble, Chavant",45.18466,5.7317,,,CHAVANT,0
2274,2274,"Montchaboud, Champ Clocher",45.09223,5.77028,,,CHAMP,0
2275,2275,"Montchaboud, Champ Clocher",45.09231,5.7705,,,CHAMP,0
2276,2276,"Le Pont-de-Claix, L'Etoile",45.13796,5.70415,,,LETOILE,0
2277,2277,"Le Pont-de-Claix, L'Etoile",45.13782,5.70412,,,LETOILE,0
2278,2278,"Le Pont-de-Claix, L'Etoile Centre des Sciences",45.13825,5.70176,,,LETOILE,0
2279,2279,"Le Pont-de-Claix, L'Etoile Centre des Sciences",45.13814,5.70174,,,LETOILE,0
2281,2281,"Seyssinet-Pariset, Pariset",45.17478,5.65879,,,PARISE,0
2282,2282,"Claix, Beau Dunois",45.12537,5.67233,,,BEAU,0
2283,2283,"Claix, Beau Dunois",45.12533,5.67234,,,BEAU,0
2284,2284,"Claix, Les Chaumes",45.12664,5.67412,,,CHAUMES,0
2285,2285,"Claix, Les Chaumes",45.12657,5.67411,,,CHAUMES,0
2286,2286,"Claix, Vert Sapin",45.12568,5.67839,,,VERT,0
2287,2287,"Claix, Vert Sapin",45.12548,5.67849,,,VERT,0
2288,2288,"Vizille, Le Grimpillon",45.08241,5.77524,,,GRIMPI,0
2289,2289,"Vizille, Le Grimpillon",45.08237,5.77513,,,GRIMPI,0
2290,2290,"Jarrie, Clos Jouvin",45.09709,5.74605,,,CLOSJUV,0
2291,2291,"Jarrie, Clos Jouvin",45.09704,5.74612,,,CLOSJUV,0
2292,2292,"Échirolles, Pied de la Combe",45.13449,5.71476,,,COMBE,0
2293,2293,"Échirolles, Pied de la Combe",45.13462,5.7145,,,COMBE,0
2294,2294,"Proveysieux, Moretière",45.25329,5.69417,,,MORE,0
2295,2295,"Proveysieux, Moretière",45.25321,5.6942,,,MORE,0
3054,3054,"Seyssins, Ancienne Gare",45.16051,5.6815,,,ANCIGARE,0
3059,3059,"Gières, Plaine des Sports",45.18762,5.78454,,,PLAINEDS,1
3062,3062,"Gières, Gières Gare - Universités",45.1854,5.7855,,,GIERGARE,1
3063,3063,"Gières, Gières Gare - Universités",45.18545,5.78546,,,GIERGARE,1
3064,3064,"Gières, Mayencin - Champ Roman",45.18456,5.77911,,,MAYENCIN,1
3065,3065,"Gières, Mayencin - Champ Roman",45.18459,5.77915,,,MAYENCIN,1
3066,3066,"Saint-Martin-d'Hères, Condillac - Universités",45.18901,5.77438,,,CONDIUNI,1
3067,3067,"Saint-Martin-d'Hères, Condillac - Universités",45.1891,5.77443,,,CONDIUNI,1
3068,3068,"Gières, Bibliothèques Universitaires",45.19246,5.7709,,,BIBLIUNI,1
3092,3092,"Saint-Martin-d'Hères, Maison Communale",45.18445,5.75437,,,MAISONCO,1
3093,3093,"Saint-Martin-d'Hères, Maison Communale",45.18447,5.75423,,,MAISONCO,1
3094,3094,"Saint-Martin-d'Hères, Edouard Vaillant",45.17941,5.75524,,,EDVAILLA,1
3095,3095,"Saint-Martin-d'Hères, Edouard Vaillant",45.17939,5.75512,,,EDVAILLA,1
3096,3096,"Saint-Martin-d'Hères, Parc Jo Blanchon",45.17513,5.75737,,,BLANCHON,1
3097,3097,"Saint-Martin-d'Hères, Parc Jo Blanchon",45.17508,5.75725,,,BLANCHON,1
3100,3100,"Saint-Martin-d'Hères, Les Taillées - Universités",45.19215,5.75784,,,TAILLEES,1
3102,3102,"Saint-Martin-d'Hères, Condillac - Universités",45.18904,5.77441,,,CONDIUNI,1
3107,3107,"Saint-Martin-d'Hères, Etienne Grappe",45.17212,5.75769,,,ETIEGRAP,1
3201,3201,"Grenoble, Louise Michel",45.16975,5.71292,,,LMICHEL,1
3202,3202,"Grenoble, Louise Michel",45.16976,5.71287,,,LMICHEL,1
3203,3203,"Grenoble, Alliés",45.17396,5.71437,,,ALLIES,1
3204,3204,"Grenoble, Alliés",45.17399,5.71427,,,ALLIES,1
3205,3205,"Grenoble, Vallier - Libération",45.17974,5.71629,,,VALLIBE,1
3206,3206,"Grenoble, Vallier - Libération",45.17975,5.71622,,,VALLIBE,1
3207,3207,"Grenoble, Condorcet",45.18485,5.71804,,,CONDORCE,1
3208,3208,"Grenoble, Condorcet",45.18487,5.71799,,,CONDORCE,1
3209,3209,"Grenoble, Alsace-Lorraine",45.18904,5.71948,,,ALSACELO,1
3210,3210,"Grenoble, Alsace-Lorraine",45.18906,5.71937,,,ALSACELO,1
3211,3211,"Grenoble, Annie Fratellini-Esplanade",45.19568,5.71686,,,ESPLANAD,1
3212,3212,"Grenoble, Annie Fratellini-Esplanade",45.19566,5.71678,,,ESPLANAD,1
3213,3213,"Grenoble, Casamaures - Village",45.19897,5.71699,,,CASAVILL,1
3214,3214,"Grenoble, Casamaures - Village",45.19899,5.71693,,,CASAVILL,1
3215,3215,"Saint-Martin-le-Vinoux, Hôtel de Ville",45.20795,5.70663,,,MAIRIESM,1
3216,3216,"Saint-Martin-le-Vinoux, Hôtel de Ville",45.20792,5.70659,,,MAIRIESM,1
3217,3217,"Saint-Martin-le-Vinoux, Horloge",45.21364,5.69877,,,HORLOGE,1
3218,3218,"Saint-Martin-le-Vinoux, Horloge",45.21363,5.69885,,,HORLOGE,1
3219,3219,"Saint-Martin-le-Vinoux, Néron",45.21798,5.69322,,,NERON,1
3220,3220,"Saint-Martin-le-Vinoux, Néron",45.21782,5.69334,,,NERON,1
3221,3221,"Saint-Égrève, Fiancey - Prédieu",45.22316,5.68867,,,PREDIEU,1
3222,3222,"Saint-Égrève, Fiancey - Prédieu",45.22314,5.68863,,,PREDIEU,1
3223,3223,"Saint-Égrève, Muret",45.22594,5.68623,,,MURET,1
3224,3224,"Saint-Égrève, Muret",45.22595,5.68613,,,MURET,1
3225,3225,"Saint-Égrève, Pont de Vence",45.23023,5.68215,,,PTVENCE,1
3226,3226,"Saint-Égrève, Pont de Vence",45.23009,5.6823,,,PTVENCE,1
3227,3227,"Saint-Égrève, La Pinéa - St Robert",45.23571,5.67553,,,PINEA,1
3228,3228,"Saint-Égrève, La Pinéa - St Robert",45.23565,5.67549,,,PINEA,1
3231,3231,"Saint-Égrève, Karben",45.24247,5.67103,,,KARBEN,1
3232,3232,"Saint-Égrève, Karben",45.24244,5.67099,,,KARBEN,1
3233,3233,"Fontanil-Cornillon, Rafour",45.2483,5.66663,,,RAFOUR,1
3234,3234,"Fontanil-Cornillon, Rafour",45.24826,5.66654,,,RAFOUR,1
3235,3235,"Fontanil-Cornillon, Palluel",45.25519,5.66132,,,FONTANIL,1
3236,3236,"Fontanil-Cornillon, Palluel",45.25507,5.66148,,,FONTANIL,1
3297,3297,"Gières, Gières Gare - Universités",45.18491,5.78527,,,GIERGARE,1
3298,3298,"Gières, Gières Gare - Universités",45.1849,5.78546,,,GIERGARE,1
3393,3393,"Le Pont-de-Claix, L'Etoile",45.13782,5.70371,,,LETOILE,0
3394,3394,"Gières, Gières Gare - Universités",45.18554,5.78563,,,GIERGARE,0
3395,3395,"Gières, Gières Gare - Universités",45.18548,5.78523,,,GIERGARE,0
3996,3996,"Grenoble, Victor Hugo",45.18867,5.72514,,,VICTHUGO,0
4019,4019,"Grenoble, Marie-Louise Paris - CEA",45.20289,5.70364,,,CEACAMB,1
4020,4020,"Grenoble, Marie-Louise Paris - CEA",45.20218,5.70444,,,CEACAMB,1
4021,4021,"Grenoble, Oxford",45.20581,5.69971,,,PRESQUIL,1
4022,4022,"Grenoble, Oxford",45.20579,5.69967,,,PRESQUIL,1
4025,4025,"Grenoble, Flandrin - Valmy",45.18717,5.74474,,,VALMY,1
4026,4026,"Grenoble, Flandrin - Valmy",45.18696,5.74436,,,VALMY,1
4027,4027,"Grenoble, Verdun - Préfecture",45.18829,5.73163,,,VERDUN,1
4029,4029,"Grenoble, Maurice Gignoux",45.19423,5.72518,,,GIGNOUX,0
4030,4030,"Grenoble, Maurice Gignoux",45.19421,5.72525,,,GIGNOUX,0
4041,4041,"Échirolles, Essarts - La Butte",45.15637,5.71922,,,ESSARTS,0
4043,4043,"Grenoble, Vallier - Libération",45.18038,5.7151,,,VALLIBE,0
4073,4073,"Le Gua, L'Arzelier",44.997,5.60277,,,ARZELIER,0
4074,4074,"Le Gua, L'Arzelier",44.99692,5.60258,,,ARZELIER,0
4075,4075,"Château-Bernard, Col de l'Arzelier",44.9909,5.59538,,,COLARZEL,0
4076,4076,"Château-Bernard, Col de l'Arzelier",44.99088,5.59543,,,COLARZEL,0
4079,4079,"Saint-Martin-le-Vinoux, Résistance",45.20341,5.71433,,,16AOUT44,0
4080,4080,"Saint-Martin-le-Vinoux, Résistance",45.20339,5.71428,,,16AOUT44,0
4081,4081,"Saint-Martin-le-Vinoux, Canet",45.21043,5.70619,,,CHEMI,0
4082,4082,"Saint-Martin-le-Vinoux, Canet",45.21067,5.70609,,,CHEMI,0
4085,4085,"Saint-Égrève, Collège Barnave",45.23094,5.69194,,,BARNA,0
4086,4086,"Saint-Égrève, Collège Barnave",45.23097,5.69175,,,BARNA,0
4087,4087,"Saint-Égrève, Chemin vert",45.23657,5.69245,,,CHEMVER,0
4088,4088,"Saint-Égrève, Chemin vert",45.2366,5.69236,,,CHEMVER,0
4089,4089,"Proveysieux, Garcinière",45.25161,5.69494,,,RIGAU,0
4090,4090,"Proveysieux, Garcinière",45.25164,5.69488,,,RIGAU,0
4091,4091,"Proveysieux, Le Mollard",45.25819,5.69604,,,EGREMOLL,0
4092,4092,"Proveysieux, Le Mollard",45.25822,5.69591,,,EGREMOLL,0
4093,4093,"Proveysieux, Proveysieux Village",45.26335,5.69981,,,EGRECOLE,0
4094,4094,"Proveysieux, Proveysieux Village",45.26335,5.69973,,,EGRECOLE,0
4095,4095,"Proveysieux, Pont du Gua",45.27608,5.70732,,,EGREGUA,0
4096,4096,"Proveysieux, Pont du Gua",45.27609,5.70727,,,EGREGUA,0
4097,4097,"Proveysieux, Savoyardière",45.27832,5.70838,,,SAVOY,0
4098,4098,"Proveysieux, Savoyardière",45.27833,5.70833,,,SAVOY,0
4099,4099,"Proveysieux, Pomarey Bas",45.28045,5.70968,,,POMAR,0
4100,4100,"Proveysieux, Pomarey Bas",45.28045,5.70961,,,POMAR,0
4101,4101,"Proveysieux, Pomarey",45.28231,5.71081,,,POMAREY,0
4102,4102,"Proveysieux, Pomarey",45.28234,5.71075,,,POMAREY,0
4103,4103,"Proveysieux, Planfay Bas",45.27869,5.71357,,,PLANF,0
4104,4104,"Proveysieux, Planfay Bas",45.2787,5.71365,,,PLANF,0
4105,4105,"Proveysieux, Planfay Haut",45.27912,5.71835,,,PLANFAY,0
4106,4106,"Proveysieux, Planfay Haut",45.27914,5.71833,,,PLANFAY,0
4107,4107,"Fontanil-Cornillon, Le Fontanil Mairie",45.25564,5.6664,,,FONTANIM,1
4108,4108,"Fontanil-Cornillon, Le Fontanil Mairie",45.25559,5.6663,,,FONTANIM,1
4113,4113,"Mont-Saint-Martin, Fochaire",45.27154,5.67451,,,FOCHAIRE,0
4114,4114,"Mont-Saint-Martin, Fochaire",45.27158,5.67442,,,FOCHAIRE,0
4115,4115,"Mont-Saint-Martin, Chemin de Namière",45.27228,5.67848,,,NAMIERE,0
4116,4116,"Mont-Saint-Martin, Chemin de Namière",45.27232,5.67853,,,NAMIERE,0
4119,4119,"Brié-et-Angonnes, Tavernolles",45.13612,5.77049,,,TAVER,0
4120,4120,"Brié-et-Angonnes, Tavernolles",45.13628,5.77037,,,TAVER,0
4121,4121,"Brié-et-Angonnes, L'Enclos",45.13329,5.77473,,,LENCLOS,0
4122,4122,"Brié-et-Angonnes, L'Enclos",45.1333,5.77484,,,LENCLOS,0
4123,4123,"Brié-et-Angonnes, Souveyron",45.13053,5.77824,,,SOUVE,0
4124,4124,"Brié-et-Angonnes, Souveyron",45.13061,5.77825,,,SOUVE,0
4125,4125,"Brié-et-Angonnes, Le Coin",45.12795,5.78504,,,SOUVEVI,0
4126,4126,"Brié-et-Angonnes, Le Coin",45.12799,5.78511,,,SOUVEVI,0
4127,4127,"Brié-et-Angonnes, Les Métraux",45.12169,5.78498,,,METRA,0
4128,4128,"Brié-et-Angonnes, Les Métraux",45.12164,5.78504,,,METRA,0
4129,4129,"Brié-et-Angonnes, Le Replat",45.1204,5.78156,,,REPLAT,0
4130,4130,"Brié-et-Angonnes, Le Replat",45.12069,5.78154,,,REPLAT,0
4131,4131,"Brié-et-Angonnes, L'Olympe",45.11776,5.78282,,,BRIECOLE,0
4132,4132,"Brié-et-Angonnes, L'Olympe",45.11784,5.78285,,,BRIECOLE,0
4133,4133,"Brié-et-Angonnes, Mont Rolland",45.1154,5.78391,,,BRIE,0
4134,4134,"Brié-et-Angonnes, Mont Rolland",45.11528,5.78405,,,BRIE,0
4135,4135,"Brié-et-Angonnes, Eglise",45.11072,5.78716,,,BRIEGLIS,0
4136,4136,"Brié-et-Angonnes, Eglise",45.11075,5.78724,,,BRIEGLIS,0
4139,4139,"Vizille, Chantefeuille",45.08066,5.77469,,,CHANTEFE,0
4141,4141,"Champagnier, Place du Laca",45.11374,5.72862,,,PLACA,0
4142,4142,"Champagnier, Place du Laca",45.11379,5.72863,,,PLACA,0
4143,4143,"Jarrie, Les Thévenets",45.11565,5.75101,,,THEVE,0
4144,4144,"Jarrie, Les Thévenets",45.11601,5.75051,,,THEVE,0
4145,4145,"Jarrie, Les Simianes",45.11605,5.75776,,,SIMIA,0
4146,4146,"Jarrie, Les Simianes",45.11612,5.75778,,,SIMIA,0
4147,4147,"Brié-et-Angonnes, Beaulieu",45.13853,5.77361,,,BEAULIEU,1
4148,4148,"Brié-et-Angonnes, Beaulieu",45.13855,5.77355,,,BEAULIEU,1
4149,4149,"Brié-et-Angonnes, Les Angonnes",45.13988,5.77611,,,ANGONNES,1
4150,4150,"Brié-et-Angonnes, Les Angonnes",45.13993,5.77617,,,ANGONNES,1
4152,4152,"Brié-et-Angonnes, Le Chollet",45.14025,5.78364,,,CHOLLET,1
4153,4153,"Herbeys, Herbeys Le Bourg",45.13867,5.79294,,,HEBOURG,1
4154,4154,"Herbeys, Herbeys Le Bourg",45.13871,5.79299,,,HEBOURG,1
4155,4155,"Eybens, François Quesnay",45.14855,5.73524,,,FRQUESNA,0
4156,4156,"Eybens, François Quesnay",45.14872,5.73539,,,FRQUESNA,0
4157,4157,"Corenc, Col de Vence",45.23419,5.75118,,,COLVENCE,0
4158,4158,"Corenc, Col de Vence",45.23401,5.75107,,,COLVENCE,0
4159,4159,"Le Sappey-en-Chartreuse, Saint-Eynard",45.24924,5.76547,,,SAINTEYN,0
4160,4160,"Le Sappey-en-Chartreuse, Saint-Eynard",45.24926,5.76534,,,SAINTEYN,0
4161,4161,"Le Sappey-en-Chartreuse, Le Gouillat",45.25468,5.77104,,,LEGOUILL,0
4162,4162,"Le Sappey-en-Chartreuse, Le Gouillat",45.25474,5.77111,,,LEGOUILL,0
4163,4163,"Le Sappey-en-Chartreuse, Le Sappey en Ch. Place",45.25954,5.7773,,,PLACESAP,0
4164,4164,"Le Sappey-en-Chartreuse, Le Sappey en Ch. Place",45.25948,5.77706,,,PLACESAP,0
4165,4165,"Le Sappey-en-Chartreuse, Churut",45.26479,5.77752,,,CHURU,0
4166,4166,"Le Sappey-en-Chartreuse, Churut",45.26475,5.77743,,,CHURU,0
4167,4167,"Le Sappey-en-Chartreuse, Les Jonquilles",45.26474,5.77424,,,MOLLARSA,0
4168,4168,"Le Sappey-en-Chartreuse, Les Jonquilles",45.26467,5.7742,,,MOLLARSA,0
4169,4169,"Sarcenas, Sarcenas Le Village",45.27347,5.75853,,,SARCENA,0
4170,4170,"Sarcenas, Sarcenas Le Village",45.27339,5.75861,,,SARCENA,0
4171,4171,"Sarcenas, Pont du Croz",45.27664,5.75742,,,SARCROZ,0
4172,4172,"Sarcenas, Pont du Croz",45.27669,5.75747,,,SARCROZ,0
4173,4173,"Sarcenas, Col de Porte",45.28975,5.76706,,,COLPORTE,0
4174,4174,"Sarcenas, Col de Porte",45.28982,5.76704,,,COLPORTE,0
4175,4175,"Quaix-en-Chartreuse, Le Bas de Quaix",45.25385,5.7021,,,BASQUAIX,0
4176,4176,"Quaix-en-Chartreuse, Le Bas de Quaix",45.25399,5.70142,,,BASQUAIX,0
4177,4177,"Quaix-en-Chartreuse, Le Barbet",45.25799,5.70805,,,BARBET,0
4178,4178,"Quaix-en-Chartreuse, Le Barbet",45.25801,5.70815,,,BARBET,0
4179,4179,"Quaix-en-Chartreuse, Bas de Petesset",45.25635,5.71059,,,BASPET,0
4180,4180,"Quaix-en-Chartreuse, Bas de Petesset",45.25637,5.7104,,,BASPET,0
4181,4181,"Quaix-en-Chartreuse, Quaix en Chartreuse Place",45.25298,5.71781,,,PLACEQUA,0
4182,4182,"Quaix-en-Chartreuse, Quaix en Chartreuse Place",45.25279,5.71794,,,PLACEQUA,0
4183,4183,"Quaix-en-Chartreuse, Le Château",45.25205,5.72198,,,CHATEAUQ,0
4184,4184,"Quaix-en-Chartreuse, Le Château",45.25216,5.72202,,,CHATEAUQ,0
4185,4185,"Quaix-en-Chartreuse, Centre Aéré",45.24763,5.72286,,,CENTRAER,0
4186,4186,"Quaix-en-Chartreuse, Centre Aéré",45.24753,5.72295,,,CENTRAER,0
4187,4187,"Quaix-en-Chartreuse, Le Charpen",45.24247,5.72542,,,CHARPEN,0
4188,4188,"Quaix-en-Chartreuse, Le Charpen",45.24256,5.72548,,,CHARPEN,0
4189,4189,"Quaix-en-Chartreuse, Roudier",45.24801,5.7316,,,ROUDIER,0
4190,4190,"Quaix-en-Chartreuse, Roudier",45.24812,5.73164,,,ROUDIER,0
4191,4191,"Quaix-en-Chartreuse, Sous La Frette",45.25032,5.73535,,,SOUSFRET,0
4192,4192,"Quaix-en-Chartreuse, Sous La Frette",45.25036,5.73532,,,SOUSFRET,0
4193,4193,"Quaix-en-Chartreuse, Bas de Mont-Quaix",45.25277,5.74181,,,BASMONT,0
4194,4194,"Quaix-en-Chartreuse, Bas de Mont-Quaix",45.25288,5.74174,,,BASMONT,0
4195,4195,"Quaix-en-Chartreuse, Mont-Quaix",45.25521,5.74303,,,MONTQUAI,0
4196,4196,"Quaix-en-Chartreuse, Mont-Quaix",45.25575,5.74284,,,MONTQUAI,0
4197,4197,"Quaix-en-Chartreuse, Fontvieille",45.2592,5.74507,,,FONVIEIL,0
4198,4198,"Quaix-en-Chartreuse, Fontvieille",45.2592,5.7449,,,FONVIEIL,0
4199,4199,"Quaix-en-Chartreuse, La Cime de Mont-Quaix",45.25735,5.7461,,,CIMEMONT,0
4200,4200,"Quaix-en-Chartreuse, La Cime de Mont-Quaix",45.25733,5.74609,,,CIMEMONT,0
4201,4201,"Vizille, Les Forges",45.07741,5.76853,,,LESFORGE,0
4202,4202,"Vizille, Les Forges",45.07708,5.76858,,,LESFORGE,0
4203,4203,"Vaulnaveys-le-Bas, Vaulnaveys-Le-Bas Le Village",45.10533,5.80038,,,VAULBAS,1
4204,4204,"Vaulnaveys-le-Bas, Vaulnaveys-Le-Bas Le Village",45.10549,5.80042,,,VAULBAS,1
4205,4205,"Vaulnaveys-le-Haut, Vaulnaveys-Le-Haut Le Village",45.11935,5.8111,,,VAULHAUT,1
4206,4206,"Vaulnaveys-le-Haut, Vaulnaveys-Le-Haut Le Village",45.11934,5.81099,,,VAULHAUT,1
4207,4207,"Vaulnaveys-le-Haut, Les Alberges",45.13085,5.81897,,,ALBERGES,1
4209,4209,"Vaulnaveys-le-Haut, La Tuilerie",45.1363,5.82481,,,LATUILE,1
4210,4210,"Vaulnaveys-le-Haut, La Tuilerie",45.13617,5.82422,,,LATUILE,1
4211,4211,"Saint-Martin-d'Uriage, Uriage Gare",45.14399,5.82949,,,URIAGE,0
4212,4212,"Saint-Martin-d'Uriage, Uriage Gare",45.14395,5.82915,,,URIAGE,0
4219,4219,"Montchaboud, Montchaboud Le Village",45.09497,5.76482,,,MONTCHAV,0
4221,4221,"Vizille, Collège Les Mattons",45.0866,5.77482,,,COLMATTO,0
4222,4222,"Vizille, Collège Les Mattons",45.08654,5.77476,,,COLMATTO,0
4223,4223,"Vizille, Vizille Lycée",45.06923,5.76588,,,LTE,0
4224,4224,"Saint-Martin-le-Vinoux, 16 Août 1944",45.20412,5.7158,,,GUERIMAN,0
4225,4225,"Saint-Martin-le-Vinoux, 16 Août 1944",45.20417,5.71567,,,GUERIMAN,0
4226,4226,"Saint-Martin-le-Vinoux, Clos Saint Martin",45.20503,5.71403,,,CLOSSTMA,0
4227,4227,"Saint-Martin-le-Vinoux, Clos Saint Martin",45.20495,5.71402,,,CLOSSTMA,0
4228,4228,"Saint-Martin-le-Vinoux, Clos Gérard Gruel",45.20968,5.71052,,,CLOSGRUE,0
4229,4229,"Saint-Martin-le-Vinoux, Clos Gérard Gruel",45.20963,5.71062,,,CLOSGRUE,0
4230,4230,"Saint-Martin-le-Vinoux, La Banchardière",45.21714,5.7128,,,BANCHARD,0
4231,4231,"Saint-Martin-le-Vinoux, La Banchardière",45.21731,5.71283,,,BANCHARD,0
4232,4232,"Grenoble, Casamaures - Village",45.19896,5.71813,,,CASAVILL,1
4233,4233,"Grenoble, Casamaures - Village",45.19899,5.71799,,,CASAVILL,1
4236,4236,"Vizille, Les Allas",45.07547,5.7786,,,LESALLAS,1
4237,4237,"Vizille, Les Allas",45.07544,5.77841,,,LESALLAS,1
4238,4238,"Vizille, Les Corniers",45.08176,5.78758,,,CORNIERS,1
4239,4239,"Vizille, Les Corniers",45.08143,5.7875,,,CORNIERS,1
4240,4240,"Vizille, Le Pont du Mas",45.08665,5.78883,,,PONTMAS,1
4241,4241,"Vizille, Le Pont du Mas",45.08687,5.78901,,,PONTMAS,1
4242,4242,"Vaulnaveys-le-Bas, Les Travers",45.09133,5.79162,,,TRAVERS,1
4243,4243,"Vaulnaveys-le-Bas, Les Travers",45.09107,5.79159,,,TRAVERS,1
4244,4244,"Vaulnaveys-le-Bas, Chemin des Cottes",45.09398,5.79326,,,LEPLATRE,1
4245,4245,"Vaulnaveys-le-Bas, Chemin des Cottes",45.09384,5.79326,,,LEPLATRE,1
4246,4246,"Vaulnaveys-le-Bas, Maison Blanche",45.11181,5.80512,,,MAISON,1
4247,4247,"Vaulnaveys-le-Bas, Maison Blanche",45.11167,5.80489,,,MAISON,1
4248,4248,"Vaulnaveys-le-Haut, Marchandises",45.11483,5.80766,,,MARCHAND,1
4249,4249,"Vaulnaveys-le-Haut, Marchandises",45.11514,5.80809,,,MARCHAND,1
4250,4250,"Vaulnaveys-le-Haut, Ecole Jules Bruant",45.12172,5.8144,,,JBRUANT,1
4251,4251,"Vaulnaveys-le-Haut, Ecole Jules Bruant",45.12136,5.81416,,,JBRUANT,1
4252,4252,"Vaulnaveys-le-Haut, Les Guichards",45.12759,5.81678,,,GUICHARD,1
4253,4253,"Vaulnaveys-le-Haut, Les Guichards",45.12565,5.81687,,,GUICHARD,1
4254,4254,"Saint-Martin-d'Uriage, Route de Saint Martin",45.13926,5.82718,,,STMARTIN,0
4255,4255,"Saint-Martin-d'Uriage, Route de Saint Martin",45.13934,5.82735,,,STMARTIN,0
4256,4256,"Saint-Martin-d'Uriage, Croisement 6",45.15287,5.8254,,,CROISEM,0
4257,4257,"Saint-Martin-d'Uriage, Croisement 6",45.15293,5.82555,,,CROISEM,0
4258,4258,"Saint-Martin-d'Uriage, Les Peiffendes",45.15716,5.8224,,,PEIFFEND,0
4259,4259,"Saint-Martin-d'Uriage, Les Peiffendes",45.15686,5.82304,,,PEIFFEND,0
4262,4262,"Venon, Le Chenil",45.1631,5.8123,,,LECHENIL,1
4263,4263,"Saint-Martin-d'Uriage, Le Chenil",45.1631,5.81305,,,LECHENIL,1
4264,4264,"Gières, Les Terrats",45.16879,5.79359,,,TERRATS,0
4265,4265,"Gières, Les Terrats",45.16915,5.79295,,,TERRATS,0
4266,4266,"Gières, La Combe",45.17413,5.78992,,,LACOMBE,0
4267,4267,"Gières, La Combe",45.1741,5.79002,,,LACOMBE,0
4276,4276,"Proveysieux, Planfay Combaleyre",45.27744,5.71591,,,COMBALEY,0
4277,4277,"Proveysieux, Planfay Combaleyre",45.27741,5.71585,,,COMBALEY,0
4278,4278,"Saint-Égrève, Bellevue",45.24406,5.69244,,,BELLEVU,0
4279,4279,"Saint-Égrève, Bellevue",45.24417,5.69253,,,BELLEVU,1
4280,4280,"Grenoble, Esclangon",45.19126,5.70683,,,ESCLANGO,0
4281,4281,"Grenoble, Esclangon",45.19158,5.7065,,,ESCLANGO,1
4282,4282,"Saint-Égrève, Champy",45.23991,5.69158,,,CHAMPY,0
4283,4283,"Saint-Égrève, Champy",45.23992,5.69165,,,CHAMPY,0
4284,4284,"Seyssins, Le Prisme",45.16666,5.69115,,,PRISME,0
4285,4285,"Seyssins, Le Prisme",45.16669,5.69134,,,PRISME,0
4288,4288,"Mont-Saint-Martin, Colavière",45.27237,5.67606,,,COLAVIER,0
4289,4289,"Mont-Saint-Martin, Colavière",45.27232,5.6761,,,COLAVIER,0
4292,4292,"Vaulnaveys-le-Haut, Les Alberges",45.13148,5.81903,,,ALBERGES,1
4293,4293,"Sassenage, Chamechaude",45.20546,5.68326,,,CHAMECHA,0
4296,4296,"Corenc, La Garenne",45.22679,5.76549,,,GARENNE,0
4297,4297,"La Tronche, Cimetière du Grand Sablon",45.19251,5.74551,,,CIMETIGS,1
4298,4298,"La Tronche, Cimetière du Grand Sablon",45.19248,5.74534,,,CIMETIGS,1
4299,4299,"La Tronche, La Tronche Hôpital",45.20173,5.74248,,,TRONCHOP,0
4300,4300,"Grenoble, Stade Lesdiguières",45.16468,5.71066,,,STADLESD,1
4301,4301,"Grenoble, Stade Lesdiguières",45.16437,5.71062,,,STADLESD,1
4302,4302,"Vif, La Valonne",45.05027,5.67157,,,LAVALONE,1
4303,4303,"Vif, La Valonne",45.05031,5.67129,,,LAVALONE,1
4304,4304,"Grenoble, Louise Michel",45.17018,5.71291,,,LMICHEL,1
4305,4305,"Grenoble, Alliés",45.17338,5.71418,,,ALLIES,1
4306,4306,"Grenoble, Alliés",45.17331,5.714,,,ALLIES,1
4307,4307,"Grenoble, Vallier - Libération",45.17908,5.71613,,,VALLIBE,1
4308,4308,"Grenoble, Vallier - Libération",45.17857,5.71577,,,VALLIBE,1
4309,4309,"Échirolles, Centre du graphisme",45.14178,5.71788,,,GRAPH,0
4310,4310,"Échirolles, Centre du graphisme",45.14186,5.71816,,,GRAPH,0
4312,4312,"Le Pont-de-Claix, ZI des Iles",45.13853,5.69449,,,ZILES,0
4313,4313,"Le Pont-de-Claix, 120 Toises",45.13626,5.69496,,,120TOISE,0
4314,4314,"Eybens, Pré au crêt",45.14405,5.7401,,,PREAUCR,0
4315,4315,"Eybens, Pré au crêt",45.14413,5.74053,,,PREAUCR,0
4316,4316,"Eybens, Les Saules",45.1617,5.74164,,,SAULES,0
4317,4317,"Eybens, Les Saules",45.16196,5.74182,,,SAULES,0
4318,4318,"Grenoble, Les Géants",45.16101,5.73969,,,PLGEANTS,0
4319,4319,"Eybens, Les Géants",45.16091,5.73965,,,PLGEANTS,0
4321,4321,"Grenoble, Victor Hugo",45.1887,5.72533,,,VICTHUGO,0
4328,4328,"Grenoble, Colonel Dumont",45.1815,5.72195,,,CAB,0
4331,4331,"Grenoble, Docteur Martin",45.18738,5.72832,,,DRMARTIN,0
4332,4332,"Grenoble, Docteur Martin",45.18737,5.72797,,,DRMARTIN,0
4333,4333,"Grenoble, Foch - Ferrié",45.18064,5.72181,,,FOCHFERI,0
4334,4334,"Vizille, Ecoles Joliot-Curie",45.08404,5.77517,,,EJCURIE,0
4335,4335,"Vizille, Ecoles Joliot-Curie",45.084,5.7751,,,EJCURIE,0
4336,4336,"Vizille, Camping",45.08593,5.77126,,,CAMPVIZ,0
4337,4337,"Vizille, Camping",45.08569,5.77121,,,CAMPVIZ,0
4338,4338,"Vizille, Vénaria",45.08187,5.77163,,,VENARIA,0
4339,4339,"Vizille, Vénaria",45.08177,5.77171,,,VENARIA,0
4340,4340,"Vizille, L'Alliance",45.08152,5.76865,,,ALLIANCE,0
4341,4341,"Vizille, L'Alliance",45.08166,5.76868,,,ALLIANCE,0
4342,4342,"Vizille, Parc Vöhringen",45.07888,5.76947,,,VOHRIGEN,0
4343,4343,"Vizille, Parc Vöhringen",45.07888,5.7694,,,VOHRIGEN,0
4344,4344,"Jarrie, Jarrie Gare",45.08563,5.74255,,,GAREJARR,0
4345,4345,"Jarrie, Jarrie Gare",45.08563,5.74262,,,GAREJARR,0
4346,4346,"Champ-sur-Drac, Pont de Champ",45.0875,5.73031,,,PONTCN,0
4347,4347,"Champ-sur-Drac, Pont de Champ",45.08771,5.73056,,,PONTCN,0
